GSCData-500km-21Mar/EclipseData500.txt

Spacecraft: DefaultSC

Start Time (UTC)            Stop Time (UTC)               Duration (s)    Occ Body        Type        Event Number  Total Duration (s)
20 Mar 2029 23:59:22.966    21 Mar 2029 00:17:08.326      1065.3601881    Earth           Umbra       1             1073.7976153
21 Mar 2029 00:17:08.326    21 Mar 2029 00:17:16.763      8.4374272032    Earth           Penumbra    1             1073.7976153
21 Mar 2029 01:15:51.257    21 Mar 2029 01:15:59.695      8.4375532460    Earth           Penumbra    2             2146.7166257
21 Mar 2029 01:15:59.695    21 Mar 2029 01:51:29.536      2129.8413315    Earth           Umbra       2             2146.7166257
21 Mar 2029 01:51:29.536    21 Mar 2029 01:51:37.974      8.4377408959    Earth           Penumbra    2             2146.7166257
21 Mar 2029 02:50:12.466    21 Mar 2029 02:50:20.904      8.4375494742    Earth           Penumbra    3             2146.6719330
21 Mar 2029 02:50:20.904    21 Mar 2029 03:25:50.700      2129.7959071    Earth           Umbra       3             2146.6719330
21 Mar 2029 03:25:50.700    21 Mar 2029 03:25:59.138      8.4384764079    Earth           Penumbra    3             2146.6719330
21 Mar 2029 04:24:33.740    21 Mar 2029 04:24:42.179      8.4381513996    Earth           Penumbra    4             2146.6276539
21 Mar 2029 04:24:42.179    21 Mar 2029 05:00:11.928      2129.7498797    Earth           Umbra       4             2146.6276539
21 Mar 2029 05:00:11.928    21 Mar 2029 05:00:20.368      8.4396227379    Earth           Penumbra    4             2146.6276539
21 Mar 2029 05:58:55.132    21 Mar 2029 05:59:03.572      8.4394234582    Earth           Penumbra    5             2146.5857058
21 Mar 2029 05:59:03.572    21 Mar 2029 06:34:33.277      2129.7050666    Earth           Umbra       5             2146.5857058
21 Mar 2029 06:34:33.277    21 Mar 2029 06:34:41.718      8.4412157186    Earth           Penumbra    5             2146.5857058
21 Mar 2029 07:33:16.533    21 Mar 2029 07:33:24.974      8.4408228169    Earth           Penumbra    6             2146.5302117
21 Mar 2029 07:33:24.974    21 Mar 2029 08:08:54.621      2129.6463593    Earth           Umbra       6             2146.5302117
21 Mar 2029 08:08:54.621    21 Mar 2029 08:09:03.064      8.4430296673    Earth           Penumbra    6             2146.5302117
21 Mar 2029 09:07:37.807    21 Mar 2029 09:07:46.249      8.4419050254    Earth           Penumbra    7             2146.4277637
21 Mar 2029 09:07:46.249    21 Mar 2029 09:43:15.790      2129.5410028    Earth           Umbra       7             2146.4277637
21 Mar 2029 09:43:15.790    21 Mar 2029 09:43:24.234      8.4448558744    Earth           Penumbra    7             2146.4277637
21 Mar 2029 10:41:59.038    21 Mar 2029 10:42:07.481      8.4429237409    Earth           Penumbra    8             2146.2979688
21 Mar 2029 10:42:07.481    21 Mar 2029 11:17:36.889      2129.4083869    Earth           Umbra       8             2146.2979688
21 Mar 2029 11:17:36.889    21 Mar 2029 11:17:45.336      8.4466581931    Earth           Penumbra    8             2146.2979688
21 Mar 2029 12:16:20.239    21 Mar 2029 12:16:28.683      8.4442033432    Earth           Penumbra    9             2146.1380088
21 Mar 2029 12:16:28.683    21 Mar 2029 12:51:57.928      2129.2451667    Earth           Umbra       9             2146.1380088
21 Mar 2029 12:51:57.928    21 Mar 2029 12:52:06.377      8.4486387321    Earth           Penumbra    9             2146.1380088
21 Mar 2029 13:50:41.498    21 Mar 2029 13:50:49.944      8.4456567653    Earth           Penumbra    10            2145.9548594
21 Mar 2029 13:50:49.944    21 Mar 2029 14:26:19.002      2129.0584400    Earth           Umbra       10            2145.9548594
21 Mar 2029 14:26:19.002    21 Mar 2029 14:26:27.453      8.4507626016    Earth           Penumbra    10            2145.9548594
21 Mar 2029 15:25:02.894    21 Mar 2029 15:25:11.341      8.4474182222    Earth           Penumbra    11            2145.7535639
21 Mar 2029 15:25:11.341    21 Mar 2029 16:00:40.195      2128.8533236    Earth           Umbra       11            2145.7535639
21 Mar 2029 16:00:40.195    21 Mar 2029 16:00:48.647      8.4528220352    Earth           Penumbra    11            2145.7535639
21 Mar 2029 16:59:24.159    21 Mar 2029 16:59:32.608      8.4495974123    Earth           Penumbra    12            2145.5382487
21 Mar 2029 16:59:32.608    21 Mar 2029 17:35:01.242      2128.6332641    Earth           Umbra       12            2145.5382487
21 Mar 2029 17:35:01.242    21 Mar 2029 17:35:09.697      8.4553872119    Earth           Penumbra    12            2145.5382487
21 Mar 2029 18:33:45.447    21 Mar 2029 18:33:53.899      8.4519777680    Earth           Penumbra    13            2145.2987431
21 Mar 2029 18:33:53.899    21 Mar 2029 19:09:22.287      2128.3883961    Earth           Umbra       13            2145.2987431
21 Mar 2029 19:09:22.287    21 Mar 2029 19:09:30.746      8.4583691787    Earth           Penumbra    13            2145.2987431
21 Mar 2029 20:08:06.815    21 Mar 2029 20:08:15.269      8.4542858298    Earth           Penumbra    14            2145.0509509
21 Mar 2029 20:08:15.269    21 Mar 2029 20:43:43.404      2128.1352062    Earth           Umbra       14            2145.0509509
21 Mar 2029 20:43:43.404    21 Mar 2029 20:43:51.866      8.4614589578    Earth           Penumbra    14            2145.0509509
21 Mar 2029 21:42:28.125    21 Mar 2029 21:42:36.582      8.4569119848    Earth           Penumbra    15            2144.7877527
21 Mar 2029 21:42:36.582    21 Mar 2029 22:18:04.448      2127.8659578    Earth           Umbra       15            2144.7877527
21 Mar 2029 22:18:04.448    21 Mar 2029 22:18:12.913      8.4648828604    Earth           Penumbra    15            2144.7877527
21 Mar 2029 23:16:49.447    21 Mar 2029 23:16:57.907      8.4599388996    Earth           Penumbra    16            2144.5104489
21 Mar 2029 23:16:57.907    21 Mar 2029 23:52:25.489      2127.5819921    Earth           Umbra       16            2144.5104489
21 Mar 2029 23:52:25.489    21 Mar 2029 23:52:33.958      8.4685179871    Earth           Penumbra    16            2144.5104489
22 Mar 2029 00:51:10.707    22 Mar 2029 00:51:19.170      8.4632194717    Earth           Penumbra    17            2144.2176378
22 Mar 2029 00:51:19.170    22 Mar 2029 01:26:46.452      2127.2819814    Earth           Umbra       17            2144.2176378
22 Mar 2029 01:26:46.452    22 Mar 2029 01:26:54.925      8.4724369459    Earth           Penumbra    17            2144.2176378
22 Mar 2029 02:25:31.930    22 Mar 2029 02:25:40.397      8.4668149939    Earth           Penumbra    18            2143.9095523
22 Mar 2029 02:25:40.397    22 Mar 2029 03:01:07.363      2126.9659413    Earth           Umbra       18            2143.9095523
22 Mar 2029 03:01:07.363    22 Mar 2029 03:01:15.840      8.4767959546    Earth           Penumbra    18            2143.9095523
22 Mar 2029 03:59:53.220    22 Mar 2029 04:00:01.691      8.4710102412    Earth           Penumbra    19            2143.5992238
22 Mar 2029 04:00:01.691    22 Mar 2029 04:35:28.338      2126.6466490    Earth           Umbra       19            2143.5992238
22 Mar 2029 04:35:28.338    22 Mar 2029 04:35:36.819      8.4815645241    Earth           Penumbra    19            2143.5992238
22 Mar 2029 05:34:14.629    22 Mar 2029 05:34:23.105      8.4758881945    Earth           Penumbra    20            2143.2892627
22 Mar 2029 05:34:23.105    22 Mar 2029 06:09:49.432      2126.3265991    Earth           Umbra       20            2143.2892627
22 Mar 2029 06:09:49.432    22 Mar 2029 06:09:57.919      8.4867753438    Earth           Penumbra    20            2143.2892627
22 Mar 2029 07:08:36.061    22 Mar 2029 07:08:44.542      8.4809434251    Earth           Penumbra    21            2142.9679775
22 Mar 2029 07:08:44.542    22 Mar 2029 07:44:10.537      2125.9948210    Earth           Umbra       21            2142.9679775
22 Mar 2029 07:44:10.537    22 Mar 2029 07:44:19.029      8.4922131035    Earth           Penumbra    21            2142.9679775
22 Mar 2029 08:42:57.362    22 Mar 2029 08:43:05.848      8.4856978501    Earth           Penumbra    22            2142.6012188
22 Mar 2029 08:43:05.848    22 Mar 2029 09:18:31.466      2125.6177988    Earth           Umbra       22            2142.6012188
22 Mar 2029 09:18:31.466    22 Mar 2029 09:18:39.963      8.4977222141    Earth           Penumbra    22            2142.6012188
22 Mar 2029 10:17:18.616    22 Mar 2029 10:17:27.107      8.4903667797    Earth           Penumbra    23            2142.2072971
22 Mar 2029 10:17:27.107    22 Mar 2029 10:52:52.320      2125.2137352    Earth           Umbra       23            2142.2072971
22 Mar 2029 10:52:52.320    22 Mar 2029 10:53:00.824      8.5031951778    Earth           Penumbra    23            2142.2072971
22 Mar 2029 11:51:39.843    22 Mar 2029 11:51:48.338      8.4952736506    Earth           Penumbra    24            2141.7840414
22 Mar 2029 11:51:48.338    22 Mar 2029 12:27:13.118      2124.7799280    Earth           Umbra       24            2141.7840414
22 Mar 2029 12:27:13.118    22 Mar 2029 12:27:21.627      8.5088397609    Earth           Penumbra    24            2141.7840414
22 Mar 2029 13:26:01.119    22 Mar 2029 13:26:09.620      8.5003612563    Earth           Penumbra    25            2141.3364296
22 Mar 2029 13:26:09.620    22 Mar 2029 14:01:33.941      2124.3214362    Earth           Umbra       25            2141.3364296
22 Mar 2029 14:01:33.941    22 Mar 2029 14:01:42.456      8.5146320751    Earth           Penumbra    25            2141.3364296
22 Mar 2029 15:00:22.543    22 Mar 2029 15:00:31.048      8.5057179211    Earth           Penumbra    26            2140.8680502
22 Mar 2029 15:00:31.048    22 Mar 2029 15:35:54.890      2123.8419896    Earth           Umbra       26            2140.8680502
22 Mar 2029 15:35:54.890    22 Mar 2029 15:36:03.411      8.5203426657    Earth           Penumbra    26            2140.8680502
22 Mar 2029 16:34:43.848    22 Mar 2029 16:34:52.359      8.5115378955    Earth           Penumbra    27            2140.3862480
22 Mar 2029 16:34:52.359    22 Mar 2029 17:10:15.707      2123.3481370    Earth           Umbra       27            2140.3862480
22 Mar 2029 17:10:15.707    22 Mar 2029 17:10:24.234      8.5265731439    Earth           Penumbra    27            2140.3862480
22 Mar 2029 18:09:05.162    22 Mar 2029 18:09:13.680      8.5176074412    Earth           Penumbra    28            2139.8765916
22 Mar 2029 18:09:13.680    22 Mar 2029 18:44:36.505      2122.8257103    Earth           Umbra       28            2139.8765916
22 Mar 2029 18:44:36.505    22 Mar 2029 18:44:45.039      8.5332738468    Earth           Penumbra    28            2139.8765916
22 Mar 2029 19:43:26.565    22 Mar 2029 19:43:35.089      8.5236122366    Earth           Penumbra    29            2139.3592083
22 Mar 2029 19:43:35.089    22 Mar 2029 20:18:57.384      2122.2955379    Earth           Umbra       29            2139.3592083
22 Mar 2029 20:18:57.384    22 Mar 2029 20:19:05.924      8.5400581593    Earth           Penumbra    29            2139.3592083
22 Mar 2029 21:17:47.911    22 Mar 2029 21:17:56.441      8.5299146944    Earth           Penumbra    30            2138.8276075
22 Mar 2029 21:17:56.441    22 Mar 2029 21:53:18.192      2121.7504946    Earth           Umbra       30            2138.8276075
22 Mar 2029 21:53:18.192    22 Mar 2029 21:53:26.739      8.5471982835    Earth           Penumbra    30            2138.8276075
22 Mar 2029 22:52:09.269    22 Mar 2029 22:52:17.805      8.5366257699    Earth           Penumbra    31            2138.2815062
22 Mar 2029 22:52:17.805    22 Mar 2029 23:27:38.996      2121.1903104    Earth           Umbra       31            2138.2815062
22 Mar 2029 23:27:38.996    22 Mar 2029 23:27:47.550      8.5545700626    Earth           Penumbra    31            2138.2815062
23 Mar 2029 00:26:30.573    23 Mar 2029 00:26:39.116      8.5436065332    Earth           Penumbra    32            2137.7188270
23 Mar 2029 00:26:39.116    23 Mar 2029 01:01:59.729      2120.6129970    Earth           Umbra       32            2137.7188270
23 Mar 2029 01:01:59.729    23 Mar 2029 01:02:08.291      8.5622234736    Earth           Penumbra    32            2137.7188270
23 Mar 2029 02:00:51.835    23 Mar 2029 02:01:00.386      8.5509163910    Earth           Penumbra    33            2137.1398599
23 Mar 2029 02:01:00.386    23 Mar 2029 02:36:20.405      2120.0185980    Earth           Umbra       33            2137.1398599
23 Mar 2029 02:36:20.405    23 Mar 2029 02:36:28.975      8.5703455377    Earth           Penumbra    33            2137.1398599
23 Mar 2029 03:35:13.167    23 Mar 2029 03:35:21.726      8.5588363465    Earth           Penumbra    34            2136.5552520
23 Mar 2029 03:35:21.726    23 Mar 2029 04:10:41.143      2119.4175297    Earth           Umbra       34            2136.5552520
23 Mar 2029 04:10:41.143    23 Mar 2029 04:10:49.722      8.5788859637    Earth           Penumbra    34            2136.5552520
23 Mar 2029 05:09:34.620    23 Mar 2029 05:09:43.187      8.5674581816    Earth           Penumbra    35            2135.9682405
23 Mar 2029 05:09:43.187    23 Mar 2029 05:45:02.000      2118.8129011    Earth           Umbra       35            2135.9682405
23 Mar 2029 05:45:02.000    23 Mar 2029 05:45:10.588      8.5878812126    Earth           Penumbra    35            2135.9682405
23 Mar 2029 06:43:56.109    23 Mar 2029 06:44:04.685      8.5763141862    Earth           Penumbra    36            2135.3708778
23 Mar 2029 06:44:04.685    23 Mar 2029 07:19:22.883      2118.1974567    Earth           Umbra       36            2135.3708778
23 Mar 2029 07:19:22.883    23 Mar 2029 07:19:31.480      8.5971068591    Earth           Penumbra    36            2135.3708778
23 Mar 2029 08:18:17.465    23 Mar 2029 08:18:26.050      8.5848932737    Earth           Penumbra    37            2134.7299756
23 Mar 2029 08:18:26.050    23 Mar 2029 08:53:43.589      2117.5386131    Earth           Umbra       37            2134.7299756
23 Mar 2029 08:53:43.589    23 Mar 2029 08:53:52.195      8.6064692354    Earth           Penumbra    37            2134.7299756
23 Mar 2029 09:52:38.769    23 Mar 2029 09:52:47.363      8.5933752358    Earth           Penumbra    38            2134.0615445
23 Mar 2029 09:52:47.363    23 Mar 2029 10:28:04.215      2116.8523722    Earth           Umbra       38            2134.0615445
23 Mar 2029 10:28:04.215    23 Mar 2029 10:28:12.831      8.6157970363    Earth           Penumbra    38            2134.0615445
23 Mar 2029 11:27:00.048    23 Mar 2029 11:27:08.650      8.6020747083    Earth           Penumbra    39            2133.3646707
23 Mar 2029 11:27:08.650    23 Mar 2029 12:02:24.788      2116.1373024    Earth           Umbra       39            2133.3646707
23 Mar 2029 12:02:24.788    23 Mar 2029 12:02:33.413      8.6252936278    Earth           Penumbra    39            2133.3646707
23 Mar 2029 13:01:21.370    23 Mar 2029 13:01:29.981      8.6109703174    Earth           Penumbra    40            2132.6417539
23 Mar 2029 13:01:29.981    23 Mar 2029 13:36:45.377      2115.3958331    Earth           Umbra       40            2132.6417539
23 Mar 2029 13:36:45.377    23 Mar 2029 13:36:54.012      8.6349505233    Earth           Penumbra    40            2132.6417539
23 Mar 2029 14:35:42.847    23 Mar 2029 14:35:51.467      8.6200982099    Earth           Penumbra    41            2131.8955267
23 Mar 2029 14:35:51.467    23 Mar 2029 15:11:06.098      2114.6309135    Earth           Umbra       41            2131.8955267
23 Mar 2029 15:11:06.098    23 Mar 2029 15:11:14.743      8.6445150082    Earth           Penumbra    41            2131.8955267
23 Mar 2029 16:10:04.221    23 Mar 2029 16:10:12.851      8.6297359318    Earth           Penumbra    42            2131.1353527
23 Mar 2029 16:10:12.851    23 Mar 2029 16:45:26.702      2113.8510051    Earth           Umbra       42            2131.1353527
23 Mar 2029 16:45:26.702    23 Mar 2029 16:45:35.357      8.6546116392    Earth           Penumbra    42            2131.1353527
23 Mar 2029 17:44:25.591    23 Mar 2029 17:44:34.230      8.6396933184    Earth           Penumbra    43            2130.3432038
23 Mar 2029 17:44:34.230    23 Mar 2029 18:19:47.269      2113.0382537    Earth           Umbra       43            2130.3432038
23 Mar 2029 18:19:47.269    23 Mar 2029 18:19:55.934      8.6652567610    Earth           Penumbra    43            2130.3432038
23 Mar 2029 19:18:47.058    23 Mar 2029 19:18:55.707      8.6495997850    Earth           Penumbra    44            2129.5429019
23 Mar 2029 19:18:55.707    23 Mar 2029 19:54:07.925      2112.2173384    Earth           Umbra       44            2129.5429019
23 Mar 2029 19:54:07.925    23 Mar 2029 19:54:16.601      8.6759638041    Earth           Penumbra    44            2129.5429019
23 Mar 2029 20:53:08.469    23 Mar 2029 20:53:17.129      8.6597947986    Earth           Penumbra    45            2128.7295687
23 Mar 2029 20:53:17.129    23 Mar 2029 21:28:28.511      2111.3827171    Earth           Umbra       45            2128.7295687
23 Mar 2029 21:28:28.511    23 Mar 2029 21:28:37.198      8.6870568339    Earth           Penumbra    45            2128.7295687
23 Mar 2029 22:27:29.891    23 Mar 2029 22:27:38.562      8.6704138317    Earth           Penumbra    46            2127.9008243
23 Mar 2029 22:27:38.562    23 Mar 2029 23:02:49.094      2110.5319978    Earth           Umbra       46            2127.9008243
23 Mar 2029 23:02:49.094    23 Mar 2029 23:02:57.792      8.6984126363    Earth           Penumbra    46            2127.9008243
24 Mar 2029 00:01:51.269    24 Mar 2029 00:01:59.950      8.6813242408    Earth           Penumbra    47            2127.0538300
24 Mar 2029 00:01:59.950    24 Mar 2029 00:37:09.613      2109.6624485    Earth           Umbra       47            2127.0538300
24 Mar 2029 00:37:09.613    24 Mar 2029 00:37:18.323      8.7100573000    Earth           Penumbra    47            2127.0538300
24 Mar 2029 01:36:12.602    24 Mar 2029 01:36:21.294      8.6925926618    Earth           Penumbra    48            2126.1891096
24 Mar 2029 01:36:21.294    24 Mar 2029 02:11:30.068      2108.7743089    Earth           Umbra       48            2126.1891096
24 Mar 2029 02:11:30.068    24 Mar 2029 02:11:38.791      8.7222080212    Earth           Penumbra    48            2126.1891096
24 Mar 2029 03:10:34.006    24 Mar 2029 03:10:42.710      8.7044865824    Earth           Penumbra    49            2125.3146330
24 Mar 2029 03:10:42.710    24 Mar 2029 03:45:50.586      2107.8753489    Earth           Umbra       49            2125.3146330
24 Mar 2029 03:45:50.586    24 Mar 2029 03:45:59.320      8.7347975350    Earth           Penumbra    49            2125.3146330
24 Mar 2029 04:44:55.534    24 Mar 2029 04:45:04.251      8.7171172723    Earth           Penumbra    50            2124.4341544
24 Mar 2029 04:45:04.251    24 Mar 2029 05:20:11.220      2106.9691648    Earth           Umbra       50            2124.4341544
24 Mar 2029 05:20:11.220    24 Mar 2029 05:20:19.968      8.7478723610    Earth           Penumbra    50            2124.4341544
24 Mar 2029 06:19:17.112    24 Mar 2029 06:19:25.842      8.7300509680    Earth           Penumbra    51            2123.5428961
24 Mar 2029 06:19:25.842    24 Mar 2029 06:54:31.894      2106.0516588    Earth           Umbra       51            2123.5428961
24 Mar 2029 06:54:31.894    24 Mar 2029 06:54:40.655      8.7611863855    Earth           Penumbra    51            2123.5428961
24 Mar 2029 07:53:38.557    24 Mar 2029 07:53:47.300      8.7427379214    Earth           Penumbra    52            2122.6103040
24 Mar 2029 07:53:47.300    24 Mar 2029 08:28:52.392      2105.0928614    Earth           Umbra       52            2122.6103040
24 Mar 2029 08:28:52.392    24 Mar 2029 08:29:01.167      8.7747047190    Earth           Penumbra    52            2122.6103040
24 Mar 2029 09:27:59.944    24 Mar 2029 09:28:08.699      8.7553264922    Earth           Penumbra    53            2121.6492941
24 Mar 2029 09:28:08.699    24 Mar 2029 10:03:12.805      2104.1057606    Earth           Umbra       53            2121.6492941
24 Mar 2029 10:03:12.805    24 Mar 2029 10:03:21.593      8.7882070220    Earth           Penumbra    53            2121.6492941
24 Mar 2029 11:02:21.307    24 Mar 2029 11:02:30.076      8.7681159144    Earth           Penumbra    54            2120.6608458
24 Mar 2029 11:02:30.076    24 Mar 2029 11:37:33.166      2103.0908502    Earth           Umbra       54            2120.6608458
24 Mar 2029 11:37:33.166    24 Mar 2029 11:37:41.968      8.8018796872    Earth           Penumbra    54            2120.6608458
24 Mar 2029 12:36:42.708    24 Mar 2029 12:36:51.489      8.7811263045    Earth           Penumbra    55            2119.6440231
24 Mar 2029 12:36:51.489    24 Mar 2029 13:11:53.537      2102.0471631    Earth           Umbra       55            2119.6440231
24 Mar 2029 13:11:53.537    24 Mar 2029 13:12:02.352      8.8157337159    Earth           Penumbra    55            2119.6440231
24 Mar 2029 14:11:04.272    24 Mar 2029 14:11:13.066      8.7943366030    Earth           Penumbra    56            2118.6015483
24 Mar 2029 14:11:13.066    24 Mar 2029 14:46:14.044      2100.9777258    Earth           Umbra       56            2118.6015483
24 Mar 2029 14:46:14.044    24 Mar 2029 14:46:22.873      8.8294859044    Earth           Penumbra    56            2118.6015483
24 Mar 2029 15:45:25.749    24 Mar 2029 15:45:34.557      8.8081076508    Earth           Penumbra    57            2117.5434294
24 Mar 2029 15:45:34.557    24 Mar 2029 16:20:34.449      2099.8915317    Earth           Umbra       57            2117.5434294
24 Mar 2029 16:20:34.449    24 Mar 2029 16:20:43.293      8.8437900413    Earth           Penumbra    57            2117.5434294
24 Mar 2029 17:19:47.208    24 Mar 2029 17:19:56.031      8.8222819730    Earth           Penumbra    58            2116.4485607
24 Mar 2029 17:19:56.031    24 Mar 2029 17:54:54.798      2098.7675352    Earth           Umbra       58            2116.4485607
24 Mar 2029 17:54:54.798    24 Mar 2029 17:55:03.657      8.8587435661    Earth           Penumbra    58            2116.4485607
24 Mar 2029 18:54:08.774    24 Mar 2029 18:54:17.610      8.8364336640    Earth           Penumbra    59            2115.3439999
24 Mar 2029 18:54:17.610    24 Mar 2029 19:29:15.244      2097.6338185    Earth           Umbra       59            2115.3439999
24 Mar 2029 19:29:15.244    24 Mar 2029 19:29:24.118      8.8737476966    Earth           Penumbra    59            2115.3439999
24 Mar 2029 20:28:30.286    24 Mar 2029 20:28:39.136      8.8508757879    Earth           Penumbra    60            2114.2275860
24 Mar 2029 20:28:39.136    24 Mar 2029 21:03:35.624      2096.4875394    Earth           Umbra       60            2114.2275860
24 Mar 2029 21:03:35.624    24 Mar 2029 21:03:44.513      8.8891708176    Earth           Penumbra    60            2114.2275860
24 Mar 2029 22:02:51.808    24 Mar 2029 22:03:00.674      8.8657702203    Earth           Penumbra    61            2113.0942639
24 Mar 2029 22:03:00.674    24 Mar 2029 22:37:55.998      2095.3235892    Earth           Umbra       61            2113.0942639
24 Mar 2029 22:37:55.998    24 Mar 2029 22:38:04.903      8.9049044880    Earth           Penumbra    61            2113.0942639
24 Mar 2029 23:37:13.296    24 Mar 2029 23:37:22.177      8.8809824316    Earth           Penumbra    62            2111.9404153
24 Mar 2029 23:37:22.177    25 Mar 2029 00:12:16.316      2094.1384879    Earth           Umbra       62            2111.9404153
25 Mar 2029 00:12:16.316    25 Mar 2029 00:12:25.237      8.9209449361    Earth           Penumbra    62            2111.9404153
25 Mar 2029 01:11:34.736    25 Mar 2029 01:11:43.632      8.8965950883    Earth           Penumbra    63            2110.7667990
25 Mar 2029 01:11:43.632    25 Mar 2029 01:46:36.565      2092.9326612    Earth           Umbra       63            2110.7667990
25 Mar 2029 01:46:36.565    25 Mar 2029 01:46:45.502      8.9375426760    Earth           Penumbra    63            2110.7667990
25 Mar 2029 02:45:56.249    25 Mar 2029 02:46:05.162      8.9128656196    Earth           Penumbra    64            2109.5785970
25 Mar 2029 02:46:05.162    25 Mar 2029 03:20:56.873      2091.7111188    Earth           Umbra       64            2109.5785970
25 Mar 2029 03:20:56.873    25 Mar 2029 03:21:05.828      8.9546125266    Earth           Penumbra    64            2109.5785970
25 Mar 2029 04:20:17.891    25 Mar 2029 04:20:26.820      8.9299191255    Earth           Penumbra    65            2108.3798906
25 Mar 2029 04:20:26.820    25 Mar 2029 04:55:17.298      2090.4777595    Earth           Umbra       65            2108.3798906
25 Mar 2029 04:55:17.298    25 Mar 2029 04:55:26.270      8.9722120087    Earth           Penumbra    65            2108.3798906
25 Mar 2029 05:54:39.598    25 Mar 2029 05:54:48.545      8.9473570464    Earth           Penumbra    66            2107.1684140
25 Mar 2029 05:54:48.545    25 Mar 2029 06:29:37.776      2089.2309868    Earth           Umbra       66            2107.1684140
25 Mar 2029 06:29:37.776    25 Mar 2029 06:29:46.766      8.9900701772    Earth           Penumbra    66            2107.1684140
25 Mar 2029 07:29:01.171    25 Mar 2029 07:29:10.135      8.9645912871    Earth           Penumbra    67            2105.9178327
25 Mar 2029 07:29:10.135    25 Mar 2029 08:03:58.080      2087.9450339    Earth           Umbra       67            2105.9178327
25 Mar 2029 08:03:58.080    25 Mar 2029 08:04:07.089      9.0082074632    Earth           Penumbra    67            2105.9178327
25 Mar 2029 09:03:22.680    25 Mar 2029 09:03:31.662      8.9817359461    Earth           Penumbra    68            2104.6374176
25 Mar 2029 09:03:31.662    25 Mar 2029 09:38:18.291      2086.6293183    Earth           Umbra       68            2104.6374176
25 Mar 2029 09:38:18.291    25 Mar 2029 09:38:27.317      9.0263632941    Earth           Penumbra    68            2104.6374176
25 Mar 2029 10:37:44.168    25 Mar 2029 10:37:53.167      8.9990698267    Earth           Penumbra    69            2103.3307038
25 Mar 2029 10:37:53.167    25 Mar 2029 11:12:38.454      2085.2869360    Earth           Umbra       69            2103.3307038
25 Mar 2029 11:12:38.454    25 Mar 2029 11:12:47.499      9.0446979739    Earth           Penumbra    69            2103.3307038
25 Mar 2029 12:12:05.689    25 Mar 2029 12:12:14.705      9.0166623937    Earth           Penumbra    70            2101.9925192
25 Mar 2029 12:12:14.705    25 Mar 2029 12:46:58.618      2083.9126092    Earth           Umbra       70            2101.9925192
25 Mar 2029 12:46:58.618    25 Mar 2029 12:47:07.681      9.0632476495    Earth           Penumbra    70            2101.9925192
25 Mar 2029 13:46:27.377    25 Mar 2029 13:46:36.412      9.0344253229    Earth           Penumbra    71            2100.6266115
25 Mar 2029 13:46:36.412    25 Mar 2029 14:21:18.922      2082.5104973    Earth           Umbra       71            2100.6266115
25 Mar 2029 14:21:18.922    25 Mar 2029 14:21:28.004      9.0816888842    Earth           Penumbra    71            2100.6266115
25 Mar 2029 15:20:49.000    25 Mar 2029 15:20:58.053      9.0528002358    Earth           Penumbra    72            2099.2421743
25 Mar 2029 15:20:58.053    25 Mar 2029 15:55:39.142      2081.0886677    Earth           Umbra       72            2099.2421743
25 Mar 2029 15:55:39.142    25 Mar 2029 15:55:48.243      9.1007062700    Earth           Penumbra    72            2099.2421743
25 Mar 2029 16:55:10.592    25 Mar 2029 16:55:19.663      9.0716887498    Earth           Penumbra    73            2097.8152791
25 Mar 2029 16:55:19.663    25 Mar 2029 17:29:59.287      2079.6230831    Earth           Umbra       73            2097.8152791
25 Mar 2029 17:29:59.287    25 Mar 2029 17:30:08.407      9.1205072589    Earth           Penumbra    73            2097.8152791
25 Mar 2029 18:29:32.298    25 Mar 2029 18:29:41.389      9.0906002093    Earth           Penumbra    74            2096.3758431
25 Mar 2029 18:29:41.389    25 Mar 2029 19:04:19.534      2078.1448859    Earth           Umbra       74            2096.3758431
25 Mar 2029 19:04:19.534    25 Mar 2029 19:04:28.674      9.1403569677    Earth           Penumbra    74            2096.3758431
25 Mar 2029 20:03:53.954    25 Mar 2029 20:04:03.064      9.1098143603    Earth           Penumbra    75            2094.9256951
25 Mar 2029 20:04:03.064    25 Mar 2029 20:38:39.719      2076.6552164    Earth           Umbra       75            2094.9256951
25 Mar 2029 20:38:39.719    25 Mar 2029 20:38:48.880      9.1606643284    Earth           Penumbra    75            2094.9256951
25 Mar 2029 21:38:15.620    25 Mar 2029 21:38:24.750      9.1295282822    Earth           Penumbra    76            2093.4564451
25 Mar 2029 21:38:24.750    25 Mar 2029 22:12:59.896      2075.1455670    Earth           Umbra       76            2093.4564451
25 Mar 2029 22:12:59.896    25 Mar 2029 22:13:09.077      9.1813498177    Earth           Penumbra    76            2093.4564451
25 Mar 2029 23:12:37.263    25 Mar 2029 23:12:46.412      9.1495914152    Earth           Penumbra    77            2091.9637590
25 Mar 2029 23:12:46.412    25 Mar 2029 23:47:20.024      2073.6117953    Earth           Umbra       77            2091.9637590
25 Mar 2029 23:47:20.024    25 Mar 2029 23:47:29.226      9.2023722595    Earth           Penumbra    77            2091.9637590
26 Mar 2029 00:46:58.854    26 Mar 2029 00:47:08.024      9.1701134574    Earth           Penumbra    78            2090.4484308
26 Mar 2029 00:47:08.024    26 Mar 2029 01:21:40.078      2072.0542974    Earth           Umbra       78            2090.4484308
26 Mar 2029 01:21:40.078    26 Mar 2029 01:21:49.302      9.2240198865    Earth           Penumbra    78            2090.4484308
26 Mar 2029 02:21:20.523    26 Mar 2029 02:21:29.714      9.1913442942    Earth           Penumbra    79            2088.9129263
26 Mar 2029 02:21:29.714    26 Mar 2029 02:56:00.189      2070.4753920    Earth           Umbra       79            2088.9129263
26 Mar 2029 02:56:00.189    26 Mar 2029 02:56:09.436      9.2461899156    Earth           Penumbra    79            2088.9129263
26 Mar 2029 03:55:42.324    26 Mar 2029 03:55:51.537      9.2134200269    Earth           Penumbra    80            2087.3613917
26 Mar 2029 03:55:51.537    26 Mar 2029 04:30:20.416      2068.8790195    Earth           Umbra       80            2087.3613917
26 Mar 2029 04:30:20.416    26 Mar 2029 04:30:29.685      9.2689521261    Earth           Penumbra    80            2087.3613917
26 Mar 2029 05:30:04.207    26 Mar 2029 05:30:13.443      9.2359801289    Earth           Penumbra    81            2085.7933665
26 Mar 2029 05:30:13.443    26 Mar 2029 06:04:40.708      2067.2653769    Earth           Umbra       81            2085.7933665
26 Mar 2029 06:04:40.708    26 Mar 2029 06:04:50.000      9.2920094845    Earth           Penumbra    81            2085.7933665
26 Mar 2029 07:04:25.958    26 Mar 2029 07:04:35.216      9.2583915568    Earth           Penumbra    82            2084.1881505
26 Mar 2029 07:04:35.216    26 Mar 2029 07:39:00.831      2065.6143313    Earth           Umbra       82            2084.1881505
26 Mar 2029 07:39:00.831    26 Mar 2029 07:39:10.146      9.3154276838    Earth           Penumbra    82            2084.1881505
26 Mar 2029 08:38:47.638    26 Mar 2029 08:38:56.918      9.2807376059    Earth           Penumbra    83            2082.5511083
26 Mar 2029 08:38:56.918    26 Mar 2029 09:13:20.850      2063.9314493    Earth           Umbra       83            2082.5511083
26 Mar 2029 09:13:20.850    26 Mar 2029 09:13:30.189      9.3389213202    Earth           Penumbra    83            2082.5511083
26 Mar 2029 10:13:09.299    26 Mar 2029 10:13:18.602      9.3032744480    Earth           Penumbra    84            2080.8890400
26 Mar 2029 10:13:18.602    26 Mar 2029 10:47:40.826      2062.2231539    Earth           Umbra       84            2080.8890400
26 Mar 2029 10:47:40.826    26 Mar 2029 10:47:50.188      9.3626117217    Earth           Penumbra    84            2080.8890400
26 Mar 2029 11:47:30.989    26 Mar 2029 11:47:40.316      9.3261164962    Earth           Penumbra    85            2079.1915076
26 Mar 2029 11:47:40.316    26 Mar 2029 12:22:00.794      2060.4788284    Earth           Umbra       85            2079.1915076
26 Mar 2029 12:22:00.794    26 Mar 2029 12:22:10.181      9.3865626957    Earth           Penumbra    85            2079.1915076
26 Mar 2029 13:21:52.852    26 Mar 2029 13:22:02.201      9.3491097330    Earth           Penumbra    86            2077.4644581
26 Mar 2029 13:22:02.201    26 Mar 2029 13:56:20.906      2058.7049406    Earth           Umbra       86            2077.4644581
26 Mar 2029 13:56:20.906    26 Mar 2029 13:56:30.316      9.4104077434    Earth           Penumbra    86            2077.4644581
26 Mar 2029 14:56:14.671    26 Mar 2029 14:56:24.044      9.3727655592    Earth           Penumbra    87            2075.7148596
26 Mar 2029 14:56:24.044    26 Mar 2029 15:30:40.951      2056.9072377    Earth           Umbra       87            2075.7148596
26 Mar 2029 15:30:40.951    26 Mar 2029 15:30:50.386      9.4348562881    Earth           Penumbra    87            2075.7148596
26 Mar 2029 16:30:36.447    26 Mar 2029 16:30:45.844      9.3970748596    Earth           Penumbra    88            2073.9157573
26 Mar 2029 16:30:45.844    26 Mar 2029 17:05:00.903      2055.0584199    Earth           Umbra       88            2073.9157573
26 Mar 2029 17:05:00.903    26 Mar 2029 17:05:10.363      9.4602625701    Earth           Penumbra    88            2073.9157573
26 Mar 2029 18:04:58.347    26 Mar 2029 18:05:07.768      9.4214765704    Earth           Penumbra    89            2072.0996905
26 Mar 2029 18:05:07.768    26 Mar 2029 18:39:20.961      2053.1924803    Earth           Umbra       89            2072.0996905
26 Mar 2029 18:39:20.961    26 Mar 2029 18:39:30.447      9.4857336022    Earth           Penumbra    89            2072.0996905
26 Mar 2029 19:39:20.200    26 Mar 2029 19:39:29.646      9.4462102046    Earth           Penumbra    90            2070.2739394
26 Mar 2029 19:39:29.646    26 Mar 2029 20:13:40.962      2051.3160191    Earth           Umbra       90            2070.2739394
26 Mar 2029 20:13:40.962    26 Mar 2029 20:13:50.474      9.5117100631    Earth           Penumbra    90            2070.2739394
26 Mar 2029 21:13:42.064    26 Mar 2029 21:13:51.535      9.4715089886    Earth           Penumbra    91            2068.4260186
26 Mar 2029 21:13:51.535    26 Mar 2029 21:48:00.951      2049.4163579    Earth           Umbra       91            2068.4260186
26 Mar 2029 21:48:00.951    26 Mar 2029 21:48:10.490      9.5381517196    Earth           Penumbra    91            2068.4260186
26 Mar 2029 22:48:03.914    26 Mar 2029 22:48:13.411      9.4972050749    Earth           Penumbra    92            2066.5510835
26 Mar 2029 22:48:13.411    26 Mar 2029 23:22:20.900      2047.4888940    Earth           Umbra       92            2066.5510835
26 Mar 2029 23:22:20.900    26 Mar 2029 23:22:30.465      9.5649843919    Earth           Penumbra    92            2066.5510835
27 Mar 2029 00:22:25.713    27 Mar 2029 00:22:35.236      9.5234326785    Earth           Penumbra    93            2064.6495046
27 Mar 2029 00:22:35.236    27 Mar 2029 00:56:40.770      2045.5335413    Earth           Umbra       93            2064.6495046
27 Mar 2029 00:56:40.770    27 Mar 2029 00:56:50.363      9.5925305737    Earth           Penumbra    93            2064.6495046
27 Mar 2029 01:56:47.593    27 Mar 2029 01:56:57.144      9.5504467143    Earth           Penumbra    94            2062.7212964
27 Mar 2029 01:56:57.144    27 Mar 2029 02:31:00.694      2043.5501829    Earth           Umbra       94            2062.7212964
27 Mar 2029 02:31:00.694    27 Mar 2029 02:31:10.315      9.6206667367    Earth           Penumbra    94            2062.7212964
27 Mar 2029 03:31:09.612    27 Mar 2029 03:31:19.190      9.5783901983    Earth           Penumbra    95            2060.7703344
27 Mar 2029 03:31:19.190    27 Mar 2029 04:05:20.733      2041.5424586    Earth           Umbra       95            2060.7703344
27 Mar 2029 04:05:20.733    27 Mar 2029 04:05:30.382      9.6494856058    Earth           Penumbra    95            2060.7703344
27 Mar 2029 05:05:31.730    27 Mar 2029 05:05:41.337      9.6069365507    Earth           Penumbra    96            2058.7972355
27 Mar 2029 05:05:41.337    27 Mar 2029 05:39:40.849      2039.5116452    Earth           Umbra       96            2058.7972355
27 Mar 2029 05:39:40.849    27 Mar 2029 05:39:50.528      9.6786536858    Earth           Penumbra    96            2058.7972355
27 Mar 2029 06:39:53.720    27 Mar 2029 06:40:03.355      9.6354172099    Earth           Penumbra    97            2056.7881074
27 Mar 2029 06:40:03.355    27 Mar 2029 07:14:00.799      2037.4444089    Earth           Umbra       97            2056.7881074
27 Mar 2029 07:14:00.799    27 Mar 2029 07:14:10.508      9.7082813038    Earth           Penumbra    97            2056.7881074
27 Mar 2029 08:14:15.631    27 Mar 2029 08:14:25.294      9.6638670657    Earth           Penumbra    98            2054.7444631
27 Mar 2029 08:14:25.294    27 Mar 2029 08:48:20.637      2035.3425290    Earth           Umbra       98            2054.7444631
27 Mar 2029 08:48:20.637    27 Mar 2029 08:48:30.375      9.7380670253    Earth           Penumbra    98            2054.7444631
27 Mar 2029 09:48:37.525    27 Mar 2029 09:48:47.218      9.6925284597    Earth           Penumbra    99            2052.6771429
27 Mar 2029 09:48:47.218    27 Mar 2029 10:22:40.435      2033.2165338    Earth           Umbra       99            2052.6771429
27 Mar 2029 10:22:40.435    27 Mar 2029 10:22:50.203      9.7680806299    Earth           Penumbra    99            2052.6771429
27 Mar 2029 11:22:59.447    27 Mar 2029 11:23:09.169      9.7215585527    Earth           Penumbra    100           2050.5693453
27 Mar 2029 11:23:09.169    27 Mar 2029 11:57:00.218      2031.0493649    Earth           Umbra       100           2050.5693453
27 Mar 2029 11:57:00.218    27 Mar 2029 11:57:10.017      9.7984217573    Earth           Penumbra    100           2050.5693453
27 Mar 2029 12:57:21.544    27 Mar 2029 12:57:31.295      9.7507335478    Earth           Penumbra    101           2048.4304424
27 Mar 2029 12:57:31.295    27 Mar 2029 13:31:20.146      2028.8510387    Earth           Umbra       101           2048.4304424
27 Mar 2029 13:31:20.146    27 Mar 2029 13:31:29.974      9.8286701599    Earth           Penumbra    101           2048.4304424
27 Mar 2029 14:31:43.623    27 Mar 2029 14:31:53.403      9.7806211095    Earth           Penumbra    102           2046.2639645
27 Mar 2029 14:31:53.403    27 Mar 2029 15:05:40.027      2026.6237911    Earth           Umbra       102           2046.2639645
27 Mar 2029 15:05:40.027    27 Mar 2029 15:05:49.887      9.8595522344    Earth           Penumbra    102           2046.2639645
27 Mar 2029 16:06:05.649    27 Mar 2029 16:06:15.460      9.8113375367    Earth           Penumbra    103           2044.0390664
27 Mar 2029 16:06:15.460    27 Mar 2029 16:39:59.796      2024.3361111    Earth           Umbra       103           2044.0390664
27 Mar 2029 16:39:59.796    27 Mar 2029 16:40:09.688      9.8916177289    Earth           Penumbra    103           2044.0390664
27 Mar 2029 17:40:27.806    27 Mar 2029 17:40:37.648      9.8422545008    Earth           Penumbra    104           2041.7908256
27 Mar 2029 17:40:37.648    27 Mar 2029 18:14:19.673      2022.0247795    Earth           Umbra       104           2041.7908256
27 Mar 2029 18:14:19.673    27 Mar 2029 18:14:29.597      9.9237916642    Earth           Penumbra    104           2041.7908256
27 Mar 2029 19:14:49.923    27 Mar 2029 19:14:59.796      9.8735495936    Earth           Penumbra    105           2039.5336741
27 Mar 2029 19:14:59.796    27 Mar 2029 19:48:39.500      2019.7035938    Earth           Umbra       105           2039.5336741
27 Mar 2029 19:48:39.500    27 Mar 2029 19:48:49.456      9.9565307493    Earth           Penumbra    105           2039.5336741
27 Mar 2029 20:49:12.051    27 Mar 2029 20:49:21.956      9.9055097904    Earth           Penumbra    106           2037.2501831
27 Mar 2029 20:49:21.956    27 Mar 2029 21:22:59.311      2017.3548185    Earth           Umbra       106           2037.2501831
27 Mar 2029 21:22:59.311    27 Mar 2029 21:23:09.301      9.9898547865    Earth           Penumbra    106           2037.2501831
27 Mar 2029 22:23:34.178    27 Mar 2029 22:23:44.116      9.9379301537    Earth           Penumbra    107           2034.9353238
27 Mar 2029 22:23:44.116    27 Mar 2029 22:57:19.089      2014.9737512    Earth           Umbra       107           2034.9353238
27 Mar 2029 22:57:19.089    27 Mar 2029 22:57:29.113      10.023642448    Earth           Penumbra    107           2034.9353238
27 Mar 2029 23:57:56.254    27 Mar 2029 23:58:06.225      9.9709835602    Earth           Penumbra    108           2032.5883484
27 Mar 2029 23:58:06.225    28 Mar 2029 00:31:38.784      2012.5590961    Earth           Umbra       108           2032.5883484
28 Mar 2029 00:31:38.784    28 Mar 2029 00:31:48.842      10.058268718    Earth           Penumbra    108           2032.5883484
28 Mar 2029 01:32:18.415    28 Mar 2029 01:32:28.420      10.004926496    Earth           Penumbra    109           2030.2072455
28 Mar 2029 01:32:28.420    28 Mar 2029 02:05:58.529      2010.1087357    Earth           Umbra       109           2030.2072455
28 Mar 2029 02:05:58.529    28 Mar 2029 02:06:08.623      10.093583353    Earth           Penumbra    109           2030.2072455
28 Mar 2029 03:06:40.724    28 Mar 2029 03:06:50.763      10.039920523    Earth           Penumbra    110           2027.7952203
28 Mar 2029 03:06:50.763    28 Mar 2029 03:40:18.389      2007.6256060    Earth           Umbra       110           2027.7952203
28 Mar 2029 03:40:18.389    28 Mar 2029 03:40:28.519      10.129693849    Earth           Penumbra    110           2027.7952203
28 Mar 2029 04:41:03.151    28 Mar 2029 04:41:13.226      10.075658862    Earth           Penumbra    111           2025.3532812
28 Mar 2029 04:41:13.226    28 Mar 2029 05:14:38.338      2005.1113786    Earth           Umbra       111           2025.3532812
28 Mar 2029 05:14:38.338    28 Mar 2029 05:14:48.504      10.166243766    Earth           Penumbra    111           2025.3532812
28 Mar 2029 06:15:25.454    28 Mar 2029 06:15:35.566      10.111455037    Earth           Penumbra    112           2022.8751209
28 Mar 2029 06:15:35.566    28 Mar 2029 06:48:58.126      2002.5602920    Earth           Umbra       112           2022.8751209
28 Mar 2029 06:48:58.126    28 Mar 2029 06:49:08.329      10.203373921    Earth           Penumbra    112           2022.8751209
28 Mar 2029 07:49:47.672    28 Mar 2029 07:49:57.819      10.147273215    Earth           Penumbra    113           2020.3588608
28 Mar 2029 07:49:57.819    28 Mar 2029 08:23:17.790      1999.9708060    Earth           Umbra       113           2020.3588608
28 Mar 2029 08:23:17.790    28 Mar 2029 08:23:28.031      10.240781622    Earth           Penumbra    113           2020.3588608
28 Mar 2029 09:24:09.876    28 Mar 2029 09:24:20.059      10.183349450    Earth           Penumbra    114           2017.8202238
28 Mar 2029 09:24:20.059    28 Mar 2029 09:57:37.418      1997.3584063    Earth           Umbra       114           2017.8202238
28 Mar 2029 09:57:37.418    28 Mar 2029 09:57:47.696      10.278468125    Earth           Penumbra    114           2017.8202238
28 Mar 2029 10:58:32.107    28 Mar 2029 10:58:42.327      10.219878308    Earth           Penumbra    115           2015.2349526
28 Mar 2029 10:58:42.327    28 Mar 2029 11:31:57.025      1994.6984956    Earth           Umbra       115           2015.2349526
28 Mar 2029 11:31:57.025    28 Mar 2029 11:32:07.342      10.316578648    Earth           Penumbra    115           2015.2349526
28 Mar 2029 12:32:54.514    28 Mar 2029 12:33:04.771      10.256571870    Earth           Penumbra    116           2012.6170199
28 Mar 2029 12:33:04.771    28 Mar 2029 13:06:16.776      1992.0058277    Earth           Umbra       116           2012.6170199
28 Mar 2029 13:06:16.776    28 Mar 2029 13:06:27.131      10.354620335    Earth           Penumbra    116           2012.6170199
28 Mar 2029 14:07:16.931    28 Mar 2029 14:07:27.225      10.294029233    Earth           Penumbra    117           2009.9657172
28 Mar 2029 14:07:27.225    28 Mar 2029 14:40:36.503      1989.2783477    Earth           Umbra       117           2009.9657172
28 Mar 2029 14:40:36.503    28 Mar 2029 14:40:46.896      10.393340327    Earth           Penumbra    117           2009.9657172
28 Mar 2029 15:41:39.288    28 Mar 2029 15:41:49.620      10.332531086    Earth           Penumbra    118           2007.2445259
28 Mar 2029 15:41:49.620    28 Mar 2029 16:14:56.099      1986.4784590    Earth           Umbra       118           2007.2445259
28 Mar 2029 16:14:56.099    28 Mar 2029 16:15:06.532      10.433535744    Earth           Penumbra    118           2007.2445259
28 Mar 2029 17:16:01.785    28 Mar 2029 17:16:12.156      10.371400695    Earth           Penumbra    119           2004.4911090
28 Mar 2029 17:16:12.156    28 Mar 2029 17:49:15.802      1983.6457864    Earth           Umbra       119           2004.4911090
28 Mar 2029 17:49:15.802    28 Mar 2029 17:49:26.276      10.473921953    Earth           Penumbra    119           2004.4911090
28 Mar 2029 18:50:24.249    28 Mar 2029 18:50:34.659      10.410721670    Earth           Penumbra    120           2001.7290622
28 Mar 2029 18:50:34.659    28 Mar 2029 19:23:35.463      1980.8033886    Earth           Umbra       120           2001.7290622
28 Mar 2029 19:23:35.463    28 Mar 2029 19:23:45.978      10.514951893    Earth           Penumbra    120           2001.7290622
28 Mar 2029 20:24:46.725    28 Mar 2029 20:24:57.176      10.450846679    Earth           Penumbra    121           1998.9350998
28 Mar 2029 20:24:57.176    28 Mar 2029 20:57:55.103      1977.9275238    Earth           Umbra       121           1998.9350998
28 Mar 2029 20:57:55.103    28 Mar 2029 20:58:05.660      10.556729289    Earth           Penumbra    121           1998.9350998
28 Mar 2029 21:59:09.214    28 Mar 2029 21:59:19.705      10.491531494    Earth           Penumbra    122           1996.1044749
28 Mar 2029 21:59:19.705    28 Mar 2029 22:32:14.719      1975.0138628    Earth           Umbra       122           1996.1044749
28 Mar 2029 22:32:14.719    28 Mar 2029 22:32:25.318      10.599080636    Earth           Penumbra    122           1996.1044749
28 Mar 2029 23:33:31.655    28 Mar 2029 23:33:42.188      10.532984824    Earth           Penumbra    123           1993.2343442
28 Mar 2029 23:33:42.188    29 Mar 2029 00:06:34.246      1972.0589194    Earth           Umbra       123           1993.2343442
29 Mar 2029 00:06:34.246    29 Mar 2029 00:06:44.889      10.642440012    Earth           Penumbra    123           1993.2343442
29 Mar 2029 01:07:54.186    29 Mar 2029 01:08:04.762      10.575468186    Earth           Penumbra    124           1990.3212833
29 Mar 2029 01:08:04.762    29 Mar 2029 01:40:53.821      1969.0591890    Earth           Umbra       124           1990.3212833
29 Mar 2029 01:40:53.821    29 Mar 2029 01:41:04.507      10.686626052    Earth           Penumbra    124           1990.3212833
29 Mar 2029 02:42:16.875    29 Mar 2029 02:42:27.494      10.619174258    Earth           Penumbra    125           1987.3673438
29 Mar 2029 02:42:27.494    29 Mar 2029 03:15:13.510      1966.0164057    Earth           Umbra       125           1987.3673438
29 Mar 2029 03:15:13.510    29 Mar 2029 03:15:24.242      10.731763858    Earth           Penumbra    125           1987.3673438
29 Mar 2029 04:16:39.703    29 Mar 2029 04:16:50.367      10.663800035    Earth           Penumbra    126           1984.3733615
29 Mar 2029 04:16:50.367    29 Mar 2029 04:49:33.299      1962.9320889    Earth           Umbra       126           1984.3733615
29 Mar 2029 04:49:33.299    29 Mar 2029 04:49:44.076      10.777472472    Earth           Penumbra    126           1984.3733615
29 Mar 2029 05:51:02.417    29 Mar 2029 05:51:13.125      10.708671925    Earth           Penumbra    127           1981.3408071
29 Mar 2029 05:51:13.125    29 Mar 2029 06:23:52.933      1959.8082111    Earth           Umbra       127           1981.3408071
29 Mar 2029 06:23:52.933    29 Mar 2029 06:24:03.757      10.823924141    Earth           Penumbra    127           1981.3408071
29 Mar 2029 07:25:25.037    29 Mar 2029 07:25:35.790      10.753638425    Earth           Penumbra    128           1978.2653539
29 Mar 2029 07:25:35.790    29 Mar 2029 07:58:12.431      1956.6408908    Earth           Umbra       128           1978.2653539
29 Mar 2029 07:58:12.431    29 Mar 2029 07:58:23.302      10.870824661    Earth           Penumbra    128           1978.2653539
29 Mar 2029 08:59:47.646    29 Mar 2029 08:59:58.445      10.798950051    Earth           Penumbra    129           1975.1685532
29 Mar 2029 08:59:58.445    29 Mar 2029 09:32:31.896      1953.4515209    Earth           Umbra       129           1975.1685532
29 Mar 2029 09:32:31.896    29 Mar 2029 09:32:42.815      10.918082250    Earth           Penumbra    129           1975.1685532
29 Mar 2029 10:34:10.284    29 Mar 2029 10:34:21.129      10.844835313    Earth           Penumbra    130           1972.0176823
29 Mar 2029 10:34:21.129    29 Mar 2029 11:06:51.336      1950.2069439    Earth           Umbra       130           1972.0176823
29 Mar 2029 11:06:51.336    29 Mar 2029 11:07:02.302      10.965903103    Earth           Penumbra    130           1972.0176823
29 Mar 2029 12:08:33.099    29 Mar 2029 12:08:43.990      10.890938714    Earth           Penumbra    131           1968.8323373
29 Mar 2029 12:08:43.990    29 Mar 2029 12:41:10.918      1946.9276992    Earth           Umbra       131           1968.8323373
29 Mar 2029 12:41:10.918    29 Mar 2029 12:41:21.931      11.013699439    Earth           Penumbra    131           1968.8323373
29 Mar 2029 13:42:55.953    29 Mar 2029 13:43:06.891      10.937866895    Earth           Penumbra    132           1965.6074189
29 Mar 2029 13:43:06.891    29 Mar 2029 14:15:30.498      1943.6073151    Earth           Umbra       132           1965.6074189
29 Mar 2029 14:15:30.498    29 Mar 2029 14:15:41.560      11.062236945    Earth           Penumbra    132           1965.6074189
29 Mar 2029 15:17:18.744    29 Mar 2029 15:17:29.730      10.986110824    Earth           Penumbra    133           1962.2977671
29 Mar 2029 15:17:29.730    29 Mar 2029 15:49:49.929      1940.1990185    Earth           Umbra       133           1962.2977671
29 Mar 2029 15:49:49.929    29 Mar 2029 15:50:01.042      11.112637748    Earth           Penumbra    133           1962.2977671
29 Mar 2029 16:51:41.684    29 Mar 2029 16:51:52.719      11.034960765    Earth           Penumbra    134           1958.9437160
29 Mar 2029 16:51:52.719    29 Mar 2029 17:24:09.465      1936.7453832    Earth           Umbra       134           1958.9437160
29 Mar 2029 17:24:09.465    29 Mar 2029 17:24:20.628      11.163372046    Earth           Penumbra    134           1958.9437160
29 Mar 2029 18:26:04.602    29 Mar 2029 18:26:15.686      11.084402259    Earth           Penumbra    135           1955.5804331
29 Mar 2029 18:26:15.686    29 Mar 2029 18:58:28.967      1933.2811691    Earth           Umbra       135           1955.5804331
29 Mar 2029 18:58:28.967    29 Mar 2029 18:58:40.182      11.214861658    Earth           Penumbra    135           1955.5804331
29 Mar 2029 20:00:27.533    29 Mar 2029 20:00:38.668      11.134829780    Earth           Penumbra    136           1952.1778565
29 Mar 2029 20:00:38.668    29 Mar 2029 20:32:48.444      1929.7757079    Earth           Umbra       136           1952.1778565
29 Mar 2029 20:32:48.444    29 Mar 2029 20:32:59.711      11.267318751    Earth           Penumbra    136           1952.1778565
29 Mar 2029 21:34:50.493    29 Mar 2029 21:35:01.679      11.185976153    Earth           Penumbra    137           1948.7321081
29 Mar 2029 21:35:01.679    29 Mar 2029 22:07:07.905      1926.2256194    Earth           Umbra       137           1948.7321081
29 Mar 2029 22:07:07.905    29 Mar 2029 22:07:19.225      11.320512614    Earth           Penumbra    137           1948.7321081
29 Mar 2029 23:09:13.410    29 Mar 2029 23:09:24.648      11.238076491    Earth           Penumbra    138           1945.2369862
29 Mar 2029 23:09:24.648    29 Mar 2029 23:41:27.272      1922.6239554    Earth           Umbra       138           1945.2369862
29 Mar 2029 23:41:27.272    29 Mar 2029 23:41:38.647      11.374954332    Earth           Penumbra    138           1945.2369862
30 Mar 2029 00:43:36.424    30 Mar 2029 00:43:47.715      11.291397340    Earth           Penumbra    139           1941.6884900
30 Mar 2029 00:43:47.715    30 Mar 2029 01:15:46.682      1918.9666678    Earth           Umbra       139           1941.6884900
30 Mar 2029 01:15:46.682    30 Mar 2029 01:15:58.112      11.430424824    Earth           Penumbra    139           1941.6884900
30 Mar 2029 02:17:59.609    30 Mar 2029 02:18:10.955      11.346198956    Earth           Penumbra    140           1938.0869024
30 Mar 2029 02:18:10.955    30 Mar 2029 02:50:06.209      1915.2536480    Earth           Umbra       140           1938.0869024
30 Mar 2029 02:50:06.209    30 Mar 2029 02:50:17.696      11.487055477    Earth           Penumbra    140           1938.0869024
30 Mar 2029 03:52:22.956    30 Mar 2029 03:52:34.358      11.402136530    Earth           Penumbra    141           1934.4325827
30 Mar 2029 03:52:34.358    30 Mar 2029 04:24:25.844      1911.4859887    Earth           Umbra       141           1934.4325827
30 Mar 2029 04:24:25.844    30 Mar 2029 04:24:37.389      11.544457474    Earth           Penumbra    141           1934.4325827
30 Mar 2029 05:26:46.202    30 Mar 2029 05:26:57.660      11.458608450    Earth           Penumbra    142           1930.7340725
30 Mar 2029 05:26:57.660    30 Mar 2029 05:58:45.333      1907.6726384    Earth           Umbra       142           1930.7340725
30 Mar 2029 05:58:45.333    30 Mar 2029 05:58:56.936      11.602825695    Earth           Penumbra    142           1930.7340725
30 Mar 2029 07:01:09.347    30 Mar 2029 07:01:20.862      11.515287508    Earth           Penumbra    143           1926.9861334
30 Mar 2029 07:01:20.862    30 Mar 2029 07:33:04.671      1903.8089504    Earth           Umbra       143           1926.9861334
30 Mar 2029 07:33:04.671    30 Mar 2029 07:33:16.333      11.661895481    Earth           Penumbra    143           1926.9861334
30 Mar 2029 08:35:32.484    30 Mar 2029 08:35:44.056      11.572453764    Earth           Penumbra    144           1923.2173140
30 Mar 2029 08:35:44.056    30 Mar 2029 09:07:23.980      1899.9234131    Earth           Umbra       144           1923.2173140
30 Mar 2029 09:07:23.980    30 Mar 2029 09:07:35.701      11.721447122    Earth           Penumbra    144           1923.2173140
30 Mar 2029 10:09:55.654    30 Mar 2029 10:10:07.285      11.630369048    Earth           Penumbra    145           1919.3855294
30 Mar 2029 10:10:07.285    30 Mar 2029 10:41:43.258      1895.9733962    Earth           Umbra       145           1919.3855294
30 Mar 2029 10:41:43.258    30 Mar 2029 10:41:55.040      11.781764135    Earth           Penumbra    145           1919.3855294
30 Mar 2029 11:44:19.002    30 Mar 2029 11:44:30.691      11.688618455    Earth           Penumbra    146           1915.5167878
30 Mar 2029 11:44:30.691    30 Mar 2029 12:16:02.677      1891.9860300    Earth           Umbra       146           1915.5167878
30 Mar 2029 12:16:02.677    30 Mar 2029 12:16:14.519      11.842139298    Earth           Penumbra    146           1915.5167878
30 Mar 2029 13:18:42.420    30 Mar 2029 13:18:54.168      11.747780652    Earth           Penumbra    147           1911.6023941
30 Mar 2029 13:18:54.168    30 Mar 2029 13:50:22.119      1887.9512758    Earth           Umbra       147           1911.6023941
30 Mar 2029 13:50:22.119    30 Mar 2029 13:50:34.022      11.903337669    Earth           Penumbra    147           1911.6023941
30 Mar 2029 14:53:05.777    30 Mar 2029 14:53:17.586      11.808601522    Earth           Penumbra    148           1907.5840460
30 Mar 2029 14:53:17.586    30 Mar 2029 15:24:41.394      1883.8085123    Earth           Umbra       148           1907.5840460
30 Mar 2029 15:24:41.394    30 Mar 2029 15:24:53.361      11.966932111    Earth           Penumbra    148           1907.5840460
30 Mar 2029 16:27:29.293    30 Mar 2029 16:27:41.163      11.870374787    Earth           Penumbra    149           1903.5047971
30 Mar 2029 16:27:41.163    30 Mar 2029 16:59:00.767      1879.6033202    Earth           Umbra       149           1903.5047971
30 Mar 2029 16:59:00.767    30 Mar 2029 16:59:12.798      12.031102076    Earth           Penumbra    149           1903.5047971
30 Mar 2029 18:01:52.800    30 Mar 2029 18:02:04.733      11.932982574    Earth           Penumbra    150           1899.4141311
30 Mar 2029 18:02:04.733    30 Mar 2029 18:33:20.117      1875.3849640    Earth           Umbra       150           1899.4141311
30 Mar 2029 18:33:20.117    30 Mar 2029 18:33:32.214      12.096184515    Earth           Penumbra    150           1899.4141311
30 Mar 2029 19:36:16.325    30 Mar 2029 19:36:28.322      11.996825330    Earth           Penumbra    151           1895.2745476
30 Mar 2029 19:36:28.322    30 Mar 2029 20:07:39.437      1871.1151694    Earth           Umbra       151           1895.2745476
30 Mar 2029 20:07:39.437    30 Mar 2029 20:07:51.599      12.162552844    Earth           Penumbra    151           1895.2745476
30 Mar 2029 21:10:39.894    30 Mar 2029 21:10:51.956      12.061638711    Earth           Penumbra    152           1891.0836448
30 Mar 2029 21:10:51.956    30 Mar 2029 21:41:58.748      1866.7921118    Earth           Umbra       152           1891.0836448
30 Mar 2029 21:41:58.748    30 Mar 2029 21:42:10.978      12.229894311    Earth           Penumbra    152           1891.0836448
30 Mar 2029 22:45:03.431    30 Mar 2029 22:45:15.559      12.127693032    Earth           Penumbra    153           1886.8302779
30 Mar 2029 22:45:15.559    30 Mar 2029 23:16:17.962      1862.4037492    Earth           Umbra       153           1886.8302779
30 Mar 2029 23:16:17.962    30 Mar 2029 23:16:30.261      12.298835674    Earth           Penumbra    153           1886.8302779
31 Mar 2029 00:19:27.072    31 Mar 2029 00:19:39.267      12.195207376    Earth           Penumbra    154           1882.5110779
31 Mar 2029 00:19:39.267    31 Mar 2029 00:50:37.214      1857.9467652    Earth           Umbra       154           1882.5110779
31 Mar 2029 00:50:37.214    31 Mar 2029 00:50:49.583      12.369105360    Earth           Penumbra    154           1882.5110779
31 Mar 2029 01:53:50.902    31 Mar 2029 01:54:03.166      12.264604506    Earth           Penumbra    155           1878.1236847
31 Mar 2029 01:54:03.166    31 Mar 2029 02:24:56.585      1853.4182530    Earth           Umbra       155           1878.1236847
