data/GroundStationContactData.txt

Target: DefaultSC

Observer: GroundStation1
Start Time (UTC)            Stop Time (UTC)               Duration (s)         
01 Jan 2029 19:54:34.041    01 Jan 2029 20:01:26.038      411.99685943    
01 Jan 2029 21:30:08.885    01 Jan 2029 21:37:29.312      440.42724045    
01 Jan 2029 23:06:24.804    01 Jan 2029 23:13:38.382      433.57859524    
02 Jan 2029 00:42:27.697    02 Jan 2029 00:49:45.601      437.90442862    
02 Jan 2029 02:18:55.340    02 Jan 2029 02:24:19.554      324.21397395    
02 Jan 2029 18:59:44.368    02 Jan 2029 19:05:42.631      358.26290821    
02 Jan 2029 20:34:38.164    02 Jan 2029 20:42:00.030      441.86546219    
02 Jan 2029 22:10:49.795    02 Jan 2029 22:18:03.287      433.49251739    
02 Jan 2029 23:46:57.897    02 Jan 2029 23:54:17.679      439.78268488    
03 Jan 2029 01:23:05.268    03 Jan 2029 01:29:39.963      394.69494224    
03 Jan 2029 18:05:31.857    03 Jan 2029 18:09:32.221      240.36397864    
03 Jan 2029 19:39:15.603    03 Jan 2029 19:46:29.378      433.77530950    
03 Jan 2029 21:15:12.975    03 Jan 2029 21:22:29.767      436.79217888    
03 Jan 2029 22:51:26.643    03 Jan 2029 22:58:43.339      436.69611159    
04 Jan 2029 00:27:28.093    04 Jan 2029 00:34:35.414      427.32034520    
04 Jan 2029 02:04:44.601    04 Jan 2029 02:07:53.205      188.60407249    
04 Jan 2029 18:44:06.379    04 Jan 2029 18:50:53.754      407.37528201    
04 Jan 2029 20:19:36.925    04 Jan 2029 20:26:58.017      441.09114439    
04 Jan 2029 21:55:52.539    04 Jan 2029 22:03:06.359      433.81976554    
04 Jan 2029 23:31:55.741    04 Jan 2029 23:39:14.996      439.25522628    
05 Jan 2029 01:08:19.429    05 Jan 2029 01:13:56.359      336.92951332    
05 Jan 2029 17:49:18.279    05 Jan 2029 17:55:06.493      348.21359577    
05 Jan 2029 19:24:05.266    05 Jan 2029 19:31:26.882      441.61601424    
05 Jan 2029 21:00:15.497    05 Jan 2029 21:07:29.563      434.06601904    
05 Jan 2029 22:36:24.147    05 Jan 2029 22:43:44.231      440.08418602    
06 Jan 2029 00:12:30.005    06 Jan 2029 00:19:11.059      401.05369559    
06 Jan 2029 16:55:12.172    06 Jan 2029 16:58:47.489      215.31747744    
06 Jan 2029 18:28:42.356    06 Jan 2029 18:35:54.017      431.66137948    
06 Jan 2029 20:04:36.894    06 Jan 2029 20:11:54.443      437.54962392    
06 Jan 2029 21:40:50.863    06 Jan 2029 21:48:07.539      436.67607423    
06 Jan 2029 23:16:52.014    06 Jan 2029 23:24:02.344      430.32993679    
07 Jan 2029 00:53:56.875    07 Jan 2029 00:57:35.567      218.69142564    
07 Jan 2029 17:33:33.572    07 Jan 2029 17:40:15.568      401.99678983    
07 Jan 2029 19:08:59.466    07 Jan 2029 19:16:21.020      441.55417560    
07 Jan 2029 20:45:14.643    07 Jan 2029 20:52:28.609      433.96544815    
07 Jan 2029 22:21:18.202    07 Jan 2029 22:28:38.534      440.33271993    
07 Jan 2029 23:57:38.310    08 Jan 2029 00:03:26.958      348.64816141    
08 Jan 2029 16:38:47.387    08 Jan 2029 16:44:24.132      336.74511166    
08 Jan 2029 18:13:26.946    08 Jan 2029 18:20:47.986      441.04062069    
08 Jan 2029 19:49:35.578    08 Jan 2029 19:56:50.125      434.54772157    
08 Jan 2029 21:25:44.772    08 Jan 2029 21:33:04.958      440.18548048    
08 Jan 2029 23:01:49.277    08 Jan 2029 23:08:36.160      406.88276055    
09 Jan 2029 15:44:49.956    09 Jan 2029 15:47:54.290      184.33458813    
09 Jan 2029 17:18:03.799    09 Jan 2029 17:25:12.834      429.03485323    
09 Jan 2029 18:53:55.230    09 Jan 2029 19:01:13.405      438.17411981    
09 Jan 2029 20:30:09.431    09 Jan 2029 20:37:25.949      436.51802936    
09 Jan 2029 22:06:10.376    09 Jan 2029 22:13:23.341      432.96490414    
09 Jan 2029 23:43:05.677    09 Jan 2029 23:47:09.952      244.27441622    
10 Jan 2029 16:22:55.633    10 Jan 2029 16:29:31.419      395.78566033    
10 Jan 2029 17:58:16.492    10 Jan 2029 18:05:38.290      441.79758512    
10 Jan 2029 19:34:31.090    10 Jan 2029 19:41:45.103      434.01249514    
10 Jan 2029 21:10:35.053    10 Jan 2029 21:17:56.182      441.12884409    
10 Jan 2029 22:46:51.918    10 Jan 2029 22:52:51.344      359.42618017    
11 Jan 2029 15:28:11.787    11 Jan 2029 15:33:35.430      323.64349732    
11 Jan 2029 17:02:43.206    11 Jan 2029 17:10:03.318      440.11176552    
11 Jan 2029 18:38:50.026    11 Jan 2029 18:46:04.957      434.93159189    
11 Jan 2029 20:14:59.755    11 Jan 2029 20:22:19.838      440.08295923    
11 Jan 2029 21:51:03.063    11 Jan 2029 21:57:55.242      412.17898697    
12 Jan 2029 14:34:27.186    12 Jan 2029 14:36:50.645      143.45926701    
12 Jan 2029 16:07:19.954    12 Jan 2029 16:14:25.806      425.85231510    
12 Jan 2029 17:43:07.991    12 Jan 2029 17:50:26.646      438.65455971    
12 Jan 2029 19:19:22.343    12 Jan 2029 19:26:38.564      436.22135902    
12 Jan 2029 20:55:23.177    12 Jan 2029 21:02:38.394      435.21725972    
12 Jan 2029 22:32:10.381    12 Jan 2029 22:36:36.968      266.58688855    
13 Jan 2029 15:12:12.621    13 Jan 2029 15:18:41.279      388.65722321    
13 Jan 2029 16:47:28.029    13 Jan 2029 16:54:49.832      441.80351574    
13 Jan 2029 18:23:41.893    13 Jan 2029 18:30:55.854      433.96036495    
13 Jan 2029 19:59:46.305    13 Jan 2029 20:07:07.944      441.63886320    
13 Jan 2029 21:36:00.238    13 Jan 2029 21:42:09.547      369.30882182    
14 Jan 2029 14:17:31.645    14 Jan 2029 14:22:40.279      308.63399062    
14 Jan 2029 15:51:54.091    14 Jan 2029 15:59:12.892      438.80161371    
14 Jan 2029 17:27:58.873    14 Jan 2029 17:35:14.087      435.21389837    
14 Jan 2029 19:04:09.120    14 Jan 2029 19:11:28.897      439.77653047    
14 Jan 2029 20:40:11.386    14 Jan 2029 20:47:08.326      416.93994328    
15 Jan 2029 13:24:11.147    15 Jan 2029 13:25:29.357      78.209946561    
15 Jan 2029 14:56:30.889    15 Jan 2029 15:03:32.956      422.06688848    
15 Jan 2029 16:32:15.225    15 Jan 2029 16:39:34.207      438.98147248    
15 Jan 2029 18:08:29.640    15 Jan 2029 18:15:45.429      435.78906561    
15 Jan 2029 19:44:30.456    15 Jan 2029 19:51:47.537      437.08126968    
15 Jan 2029 21:21:10.671    15 Jan 2029 21:25:57.002      286.33097308    
16 Jan 2029 14:01:24.642    16 Jan 2029 14:07:45.156      380.51338191    
16 Jan 2029 15:36:34.141    16 Jan 2029 15:43:55.696      441.55458390    
16 Jan 2029 17:12:47.108    16 Jan 2029 17:20:00.919      433.81158878    
16 Jan 2029 18:48:52.010    16 Jan 2029 18:56:13.871      441.86128518    
16 Jan 2029 20:25:03.300    16 Jan 2029 20:31:21.631      378.33033011    
17 Jan 2029 13:06:47.212    17 Jan 2029 13:11:38.562      291.35018871    
17 Jan 2029 14:40:59.684    17 Jan 2029 14:48:16.766      437.08122787    
17 Jan 2029 16:17:02.189    17 Jan 2029 16:24:17.582      435.39288458    
17 Jan 2029 17:53:12.932    17 Jan 2029 18:00:32.202      439.26976647    
17 Jan 2029 19:29:14.307    17 Jan 2029 19:36:15.471      421.16363291    
17 Jan 2029 21:07:35.781    17 Jan 2029 21:08:15.869      40.087960556    
18 Jan 2029 13:45:36.710    18 Jan 2029 13:52:34.337      417.62768913    
18 Jan 2029 15:21:17.016    18 Jan 2029 15:28:36.162      439.14613570    
18 Jan 2029 16:57:31.393    18 Jan 2029 17:04:46.620      435.22727180    
18 Jan 2029 18:33:32.284    18 Jan 2029 18:40:50.838      438.55400265    
18 Jan 2029 20:10:06.393    18 Jan 2029 20:15:10.341      303.94823004    
19 Jan 2029 12:50:31.839    19 Jan 2029 12:56:43.079      371.24068716    
19 Jan 2029 14:25:34.926    19 Jan 2029 14:32:55.960      441.03324608    
19 Jan 2029 16:01:46.815    19 Jan 2029 16:09:00.386      433.57062374    
19 Jan 2029 17:37:52.246    19 Jan 2029 17:45:14.044      441.79810878    
19 Jan 2029 19:14:01.166    19 Jan 2029 19:20:27.685      386.51927370    
20 Jan 2029 11:55:58.834    20 Jan 2029 12:00:30.117      271.28392289    
20 Jan 2029 13:30:00.093    20 Jan 2029 13:37:15.013      434.92050577    
20 Jan 2029 15:06:00.064    20 Jan 2029 15:13:15.531      435.46753685    
20 Jan 2029 16:42:11.271    20 Jan 2029 16:49:29.840      438.56938648    
20 Jan 2029 18:18:11.906    20 Jan 2029 18:25:16.757      424.85073949    
20 Jan 2029 19:55:53.036    20 Jan 2029 19:58:01.754      128.71836552    
21 Jan 2029 12:34:37.534    21 Jan 2029 12:41:30.014      412.47963599    
21 Jan 2029 14:10:13.461    21 Jan 2029 14:17:32.601      439.13992534    
21 Jan 2029 15:46:27.688    21 Jan 2029 15:53:42.232      434.54431999    
21 Jan 2029 17:22:28.746    21 Jan 2029 17:29:48.382      439.63619289    
21 Jan 2029 18:58:57.476    21 Jan 2029 19:04:17.216      319.74080839    
22 Jan 2029 11:39:34.368    22 Jan 2029 11:45:35.074      360.70543734    
22 Jan 2029 13:14:30.484    22 Jan 2029 13:21:50.706      440.22162430    
22 Jan 2029 14:50:41.102    22 Jan 2029 14:57:54.345      433.24319202    
22 Jan 2029 16:26:47.094    22 Jan 2029 16:34:08.549      441.45481830    
22 Jan 2029 18:02:53.900    22 Jan 2029 18:09:27.803      393.90264902    
23 Jan 2029 10:45:06.973    23 Jan 2029 10:49:14.653      247.67972206    
23 Jan 2029 12:18:55.419    23 Jan 2029 12:26:07.707      432.28780908    
23 Jan 2029 13:54:52.585    23 Jan 2029 14:02:08.022      435.43752513    
23 Jan 2029 15:31:04.214    23 Jan 2029 15:38:21.899      437.68508511    
23 Jan 2029 17:07:04.255    23 Jan 2029 17:14:12.261      428.00538096    
23 Jan 2029 18:44:25.551    23 Jan 2029 18:47:21.387      175.83612978    
24 Jan 2029 11:23:33.475    24 Jan 2029 11:30:20.036      406.56131320    
24 Jan 2029 12:59:04.643    24 Jan 2029 13:06:23.598      438.95455620    
24 Jan 2029 14:35:18.595    24 Jan 2029 14:42:32.346      433.75092570    
24 Jan 2029 16:11:19.907    24 Jan 2029 16:18:40.239      440.33230314    
24 Jan 2029 17:47:43.874    24 Jan 2029 17:53:17.802      333.92827073    
25 Jan 2029 10:28:32.383    25 Jan 2029 10:34:21.126      348.74336401    
25 Jan 2029 12:03:20.893    25 Jan 2029 12:10:39.995      439.10145618    
25 Jan 2029 13:39:30.032    25 Jan 2029 13:46:42.869      432.83680435    
25 Jan 2029 15:15:36.610    25 Jan 2029 15:22:57.450      440.84053345    
25 Jan 2029 16:51:41.544    25 Jan 2029 16:58:22.051      400.50665037    
26 Jan 2029 09:34:12.306    26 Jan 2029 09:37:51.607      219.30074233    
26 Jan 2029 11:07:45.737    26 Jan 2029 11:14:54.886      429.14886827    
26 Jan 2029 12:43:39.805    26 Jan 2029 12:50:55.109      435.30380402    
26 Jan 2029 14:19:51.804    26 Jan 2029 14:27:08.434      436.62999660    
26 Jan 2029 15:55:51.395    26 Jan 2029 16:03:02.029      430.63487064    
26 Jan 2029 17:32:58.464    26 Jan 2029 17:36:29.708      211.24399257    
27 Jan 2029 10:12:24.606    27 Jan 2029 10:19:04.407      399.80159390    
27 Jan 2029 11:47:50.606    27 Jan 2029 11:55:09.188      438.58234029    
27 Jan 2029 13:24:04.142    27 Jan 2029 13:31:17.003      432.86083045    
27 Jan 2029 15:00:05.792    27 Jan 2029 15:07:26.443      440.65059973    
27 Jan 2029 16:36:25.528    27 Jan 2029 16:42:12.205      346.67680379    
28 Jan 2029 09:17:26.008    28 Jan 2029 09:23:01.153      335.14495186    
28 Jan 2029 10:52:06.183    28 Jan 2029 10:59:23.837      437.65367969    
28 Jan 2029 12:28:13.617    28 Jan 2029 12:35:25.978      432.36136028    
28 Jan 2029 14:04:20.798    28 Jan 2029 14:11:40.766      439.96844975    
28 Jan 2029 15:40:24.091    28 Jan 2029 15:47:10.448      406.35693170    
29 Jan 2029 08:23:15.997    29 Jan 2029 08:26:19.815      183.81825776    
29 Jan 2029 09:56:31.065    29 Jan 2029 10:03:36.530      425.46544145    
29 Jan 2029 11:32:21.722    29 Jan 2029 11:39:36.791      435.06886074    
29 Jan 2029 13:08:34.023    29 Jan 2029 13:15:49.444      435.42128038    
29 Jan 2029 14:44:33.304    29 Jan 2029 14:51:46.054      432.74980146    
29 Jan 2029 16:21:29.169    29 Jan 2029 16:25:29.288      240.11953751    
30 Jan 2029 09:01:10.948    30 Jan 2029 09:07:43.064      392.11629845    
30 Jan 2029 10:36:31.329    30 Jan 2029 10:43:49.345      438.01598033    
30 Jan 2029 12:12:44.293    30 Jan 2029 12:19:56.184      431.89118392    
30 Jan 2029 13:48:46.360    30 Jan 2029 13:56:06.963      440.60360806    
30 Jan 2029 15:25:02.333    30 Jan 2029 15:31:00.450      358.11700526    
31 Jan 2029 08:06:15.337    31 Jan 2029 08:11:34.973      319.63615824    
31 Jan 2029 09:40:46.320    31 Jan 2029 09:48:02.178      435.85788313    
31 Jan 2029 11:16:51.803    31 Jan 2029 11:24:03.632      431.82903127    
31 Jan 2029 12:52:59.595    31 Jan 2029 13:00:18.451      438.85630374    
31 Jan 2029 14:29:01.467    31 Jan 2029 14:35:52.947      411.47988093    
01 Feb 2029 07:12:20.810    01 Feb 2029 07:14:36.386      135.57675469    
01 Feb 2029 08:45:11.359    01 Feb 2029 08:52:12.554      421.19461148    
01 Feb 2029 10:20:58.266    01 Feb 2029 10:28:13.002      434.73616006    
01 Feb 2029 11:57:10.790    01 Feb 2029 12:04:24.870      434.08008587    
01 Feb 2029 13:33:09.897    01 Feb 2029 13:40:24.262      434.36503642    
01 Feb 2029 15:09:56.529    01 Feb 2029 15:14:21.098      264.56925905    
02 Feb 2029 07:49:52.466    02 Feb 2029 07:56:15.872      383.40598214    
02 Feb 2029 09:25:06.731    02 Feb 2029 09:32:23.979      437.24790746    
02 Feb 2029 11:01:18.947    02 Feb 2029 11:08:29.809      430.86177200    
02 Feb 2029 12:37:21.506    02 Feb 2029 12:44:41.714      440.20865760    
02 Feb 2029 14:13:34.134    02 Feb 2029 14:19:42.492      368.35790601    
03 Feb 2029 06:55:00.452    03 Feb 2029 07:00:02.302      301.84971843    
03 Feb 2029 08:29:21.213    03 Feb 2029 08:36:34.905      433.69184083    
03 Feb 2029 10:05:24.480    03 Feb 2029 10:12:35.733      431.25310965    
03 Feb 2029 11:41:32.880    03 Feb 2029 11:48:50.406      437.52610262    
03 Feb 2029 13:17:33.542    03 Feb 2029 13:24:29.447      415.90485190    
04 Feb 2029 06:01:42.635    04 Feb 2029 06:02:25.197      42.561986879    
04 Feb 2029 07:33:46.527    04 Feb 2029 07:40:42.815      416.28786600    
04 Feb 2029 09:09:29.317    04 Feb 2029 09:16:43.626      434.30919660    
04 Feb 2029 10:45:41.969    04 Feb 2029 10:52:54.600      432.63073432    
04 Feb 2029 12:21:41.037    04 Feb 2029 12:28:56.537      435.50008452    
04 Feb 2029 13:58:19.855    04 Feb 2029 14:03:05.564      285.70880159    
05 Feb 2029 06:38:29.092    05 Feb 2029 06:44:42.643      373.55063239    
05 Feb 2029 08:13:36.688    05 Feb 2029 08:20:52.958      436.26966927    
05 Feb 2029 09:49:47.963    05 Feb 2029 09:56:57.758      429.79448122    
05 Feb 2029 11:25:51.082    05 Feb 2029 11:33:10.570      439.48751888    
05 Feb 2029 13:02:00.744    05 Feb 2029 13:08:18.238      377.49361574    
06 Feb 2029 05:43:41.478    06 Feb 2029 05:48:22.745      281.26668156    
06 Feb 2029 07:17:50.738    06 Feb 2029 07:25:01.868      431.13042153    
06 Feb 2029 08:53:51.501    06 Feb 2029 09:01:02.149      430.64822458    
06 Feb 2029 10:30:00.497    06 Feb 2029 10:37:16.501      436.00411518    
06 Feb 2029 12:06:00.153    06 Feb 2029 12:12:59.816      419.66274051    
06 Feb 2029 13:44:16.237    06 Feb 2029 13:45:04.109      47.872455209    
07 Feb 2029 06:22:16.457    07 Feb 2029 06:29:07.145      410.68802211    
07 Feb 2029 07:57:54.733    07 Feb 2029 08:05:08.525      433.79197890    
07 Feb 2029 09:34:07.401    07 Feb 2029 09:41:18.502      431.10164793    
07 Feb 2029 11:10:06.560    07 Feb 2029 11:17:22.738      436.17797670    
07 Feb 2029 12:46:38.657    07 Feb 2029 12:51:42.871      304.21404722    
08 Feb 2029 05:27:00.759    08 Feb 2029 05:33:03.159      362.40000104    
08 Feb 2029 07:02:01.061    08 Feb 2029 07:09:16.133      435.07170001    
08 Feb 2029 08:38:11.183    08 Feb 2029 08:45:19.898      428.71457012    
08 Feb 2029 10:14:14.925    08 Feb 2029 10:21:33.392      438.46657762    
08 Feb 2029 11:50:21.968    08 Feb 2029 11:56:47.572      385.60358074    
09 Feb 2029 04:32:18.662    09 Feb 2029 04:36:35.769      257.10729396    
09 Feb 2029 06:06:14.767    09 Feb 2029 06:13:22.911      428.14428586    
09 Feb 2029 07:42:12.715    09 Feb 2029 07:49:22.746      430.03084209    
09 Feb 2029 09:18:22.282    09 Feb 2029 09:25:36.604      434.32173708    
09 Feb 2029 10:54:21.132    09 Feb 2029 11:01:23.917      422.78474128    
09 Feb 2029 12:31:57.413    09 Feb 2029 12:34:12.763      135.34952266    
10 Feb 2029 05:10:41.044    10 Feb 2029 05:17:25.371      404.32700815    
10 Feb 2029 06:46:14.371    10 Feb 2029 06:53:27.560      433.18832440    
10 Feb 2029 08:22:26.927    10 Feb 2029 08:29:36.453      429.52553811    
10 Feb 2029 09:58:26.307    10 Feb 2029 10:05:42.733      436.42547083    
10 Feb 2029 11:34:52.564    10 Feb 2029 11:40:13.095      320.53054618    
11 Feb 2029 04:15:27.429    11 Feb 2029 04:21:17.195      349.76568074    
11 Feb 2029 05:50:19.725    11 Feb 2029 05:57:33.367      433.64213813    
11 Feb 2029 07:26:28.460    11 Feb 2029 07:33:36.109      427.64949217    
11 Feb 2029 09:02:32.881    11 Feb 2029 09:09:50.058      437.17713675    
11 Feb 2029 10:38:37.632    11 Feb 2029 10:45:10.389      392.75722738    
12 Feb 2029 03:20:52.513    12 Feb 2029 03:24:40.621      228.10792619    
12 Feb 2029 04:54:33.196    12 Feb 2029 05:01:37.896      424.69919856    
12 Feb 2029 06:30:27.993    12 Feb 2029 06:37:37.410      429.41727452    
12 Feb 2029 08:06:38.093    12 Feb 2029 08:13:50.607      432.51479060    
12 Feb 2029 09:42:36.334    12 Feb 2029 09:49:41.638      425.30415592    
12 Feb 2029 11:19:52.379    12 Feb 2029 11:22:55.498      183.11864157    
13 Feb 2029 03:59:00.219    13 Feb 2029 04:05:37.344      397.12505786    
13 Feb 2029 05:34:28.124    13 Feb 2029 05:41:40.624      432.50016522    
13 Feb 2029 07:10:40.420    13 Feb 2029 07:17:48.357      427.93774655    
13 Feb 2029 08:46:40.147    13 Feb 2029 08:53:56.421      436.27375859    
13 Feb 2029 10:23:01.300    13 Feb 2029 10:28:36.275      334.97489677    
14 Feb 2029 03:03:49.125    14 Feb 2029 03:09:24.534      335.40904687    
14 Feb 2029 04:38:32.593    14 Feb 2029 04:45:44.559      431.96587987    
14 Feb 2029 06:14:39.684    14 Feb 2029 06:21:46.311      426.62709779    
14 Feb 2029 07:50:44.833    14 Feb 2029 07:58:00.488      435.65507198    
14 Feb 2029 09:26:47.599    14 Feb 2029 09:33:26.618      399.01863635    
15 Feb 2029 02:09:24.122    15 Feb 2029 02:12:36.048      191.92610392    
15 Feb 2029 03:42:45.966    15 Feb 2029 03:49:46.721      420.75507673    
15 Feb 2029 05:18:37.248    15 Feb 2029 05:25:46.070      428.82246785    
15 Feb 2029 06:54:47.826    15 Feb 2029 07:01:58.449      430.62271394    
15 Feb 2029 08:30:45.654    15 Feb 2029 08:37:52.911      427.25703490    
15 Feb 2029 10:07:47.183    15 Feb 2029 10:11:26.092      218.90835674    
16 Feb 2029 02:47:13.964    16 Feb 2029 02:53:42.951      388.98706608    
16 Feb 2029 04:22:35.928    16 Feb 2029 04:29:47.655      431.72681930    
16 Feb 2029 05:58:47.795    16 Feb 2029 06:05:54.170      426.37552188    
16 Feb 2029 07:34:47.992    16 Feb 2029 07:42:03.751      435.75818542    
16 Feb 2029 09:11:04.675    16 Feb 2029 09:16:52.459      347.78381316    
17 Feb 2029 01:52:05.955    17 Feb 2029 01:57:24.971      319.01610182    
17 Feb 2029 03:26:39.626    17 Feb 2029 03:33:49.650      430.02360893    
17 Feb 2029 05:02:44.794    17 Feb 2029 05:09:50.469      425.67519533    
17 Feb 2029 06:38:50.707    17 Feb 2029 06:46:04.648      433.94052372    
17 Feb 2029 08:14:51.785    17 Feb 2029 08:21:36.232      404.44731591    
18 Feb 2029 00:57:56.245    18 Feb 2029 01:00:19.223      142.97845118    
18 Feb 2029 02:30:53.066    18 Feb 2029 02:37:49.330      416.26373366    
18 Feb 2029 04:06:40.439    18 Feb 2029 04:13:48.698      428.25957328    
18 Feb 2029 05:42:51.424    18 Feb 2029 05:50:00.112      428.68834629    
18 Feb 2029 07:18:49.030    18 Feb 2029 07:25:57.711      428.68153621    
18 Feb 2029 08:55:39.166    18 Feb 2029 08:59:47.113      247.94682796    
19 Feb 2029 01:35:22.314    19 Feb 2029 01:41:42.110      379.79632592    
19 Feb 2029 03:10:37.762    19 Feb 2029 03:17:48.626      430.86416745    
19 Feb 2029 04:46:49.008    19 Feb 2029 04:53:53.885      424.87768281    
19 Feb 2029 06:22:49.793    19 Feb 2029 06:30:04.711      434.91792551    
19 Feb 2029 07:59:02.562    19 Feb 2029 08:05:01.702      359.14004903    
20 Feb 2029 00:40:18.118    20 Feb 2029 00:45:18.273      300.15567524    
20 Feb 2029 02:14:40.822    20 Feb 2029 02:21:48.612      427.79028425    
20 Feb 2029 03:50:43.759    20 Feb 2029 03:57:48.580      424.82082364    
20 Feb 2029 05:26:50.461    20 Feb 2029 05:34:02.539      432.07766104    
20 Feb 2029 07:02:50.134    20 Feb 2029 07:09:39.233      409.09901097    
20 Feb 2029 23:46:43.145    20 Feb 2029 23:47:35.855      52.709595161    
21 Feb 2029 01:18:54.513    21 Feb 2029 01:25:45.679      411.16625578    
21 Feb 2029 02:54:37.549    21 Feb 2029 03:01:45.288      427.73880878    
21 Feb 2029 04:30:48.847    21 Feb 2029 04:37:55.604      426.75732428    
21 Feb 2029 06:06:46.420    21 Feb 2029 06:13:56.038      429.61811267    
21 Feb 2029 07:43:27.225    21 Feb 2029 07:47:59.618      272.39351316    
22 Feb 2029 00:23:25.329    22 Feb 2029 00:29:34.737      369.40739898    
22 Feb 2029 01:58:33.619    22 Feb 2029 02:05:43.523      429.90325056    
22 Feb 2029 03:34:44.025    22 Feb 2029 03:41:47.509      423.48336861    
22 Feb 2029 05:10:45.508    22 Feb 2029 05:17:59.304      433.79593024    
22 Feb 2029 06:46:54.865    22 Feb 2029 06:53:04.056      369.19059047    
22 Feb 2029 23:28:25.907    22 Feb 2029 23:33:04.115      278.20767676    
23 Feb 2029 01:02:36.182    23 Feb 2029 01:09:41.415      425.23354897    
23 Feb 2029 02:38:36.551    23 Feb 2029 02:45:40.640      424.08858718    
23 Feb 2029 04:14:44.049    23 Feb 2029 04:21:54.163      430.11402787    
23 Feb 2029 05:50:42.593    23 Feb 2029 05:57:35.621      413.02794039    
24 Feb 2029 00:06:50.322    24 Feb 2029 00:13:35.712      405.39054688    
24 Feb 2029 01:42:28.554    24 Feb 2029 01:49:35.819      427.26579473    
24 Feb 2029 03:18:40.045    24 Feb 2029 03:25:44.922      424.87662669    
24 Feb 2029 04:54:37.769    24 Feb 2029 05:01:47.879      430.11014631    
24 Feb 2029 06:31:10.746    24 Feb 2029 06:36:04.146      293.39988779    
24 Feb 2029 23:11:23.069    24 Feb 2029 23:17:20.706      357.63694727    
25 Feb 2029 00:46:23.475    25 Feb 2029 00:53:32.304      428.82884386    
25 Feb 2029 02:22:32.793    25 Feb 2029 02:29:35.023      422.23011085    
25 Feb 2029 03:58:35.070    25 Feb 2029 04:05:47.509      432.43862456    
25 Feb 2029 05:34:41.474    25 Feb 2029 05:40:59.533      378.05991032    
25 Feb 2029 22:16:29.753    25 Feb 2029 22:20:41.973      252.22054592    
25 Feb 2029 23:50:25.680    25 Feb 2029 23:57:27.992      422.31229426    
26 Feb 2029 01:26:23.113    26 Feb 2029 01:33:26.612      423.49882851    
26 Feb 2029 03:02:31.391    26 Feb 2029 03:09:39.490      428.09937405    
26 Feb 2029 04:38:29.072    26 Feb 2029 04:45:25.361      416.28879765    
26 Feb 2029 06:16:13.384    26 Feb 2029 06:18:03.501      110.11746215    
26 Feb 2029 22:54:40.472    26 Feb 2029 23:01:19.321      398.84834772    
27 Feb 2029 00:30:13.389    27 Feb 2029 00:37:20.229      426.84020768    
27 Feb 2029 02:06:24.927    27 Feb 2029 02:13:28.020      423.09292364    
27 Feb 2029 03:42:22.977    27 Feb 2029 03:49:33.182      430.20411615    
27 Feb 2029 05:18:49.293    27 Feb 2029 05:24:00.969      311.67630904    
27 Feb 2029 21:59:15.569    27 Feb 2029 22:04:59.818      344.24928037    
27 Feb 2029 23:34:07.258    27 Feb 2029 23:41:14.876      427.61838975    
28 Feb 2029 01:10:15.208    28 Feb 2029 01:17:16.360      421.15225259    
28 Feb 2029 02:46:18.363    28 Feb 2029 02:53:29.258      430.89514350    
28 Feb 2029 04:22:22.232    28 Feb 2029 04:28:48.090      385.85808235    
28 Feb 2029 21:04:30.361    28 Feb 2029 21:08:10.941      220.58001050    
28 Feb 2029 22:38:09.238    28 Feb 2029 22:45:08.212      418.97489692    
01 Mar 2029 00:14:03.330    01 Mar 2029 00:21:06.397      423.06657439    
01 Mar 2029 01:50:12.350    01 Mar 2029 01:57:18.435      426.08455522    
01 Mar 2029 03:26:09.425    01 Mar 2029 03:33:08.362      418.93711706    
01 Mar 2029 05:03:28.043    01 Mar 2029 05:06:17.483      169.43975121    
01 Mar 2029 21:42:24.894    01 Mar 2029 21:48:56.324      391.43003369    
01 Mar 2029 23:17:51.931    01 Mar 2029 23:24:58.386      426.45509485    
02 Mar 2029 00:54:03.336    02 Mar 2029 01:01:04.787      421.45167009    
02 Mar 2029 02:30:01.880    02 Mar 2029 02:37:11.829      429.94882842    
02 Mar 2029 04:06:22.480    02 Mar 2029 04:11:50.184      327.70375900    
02 Mar 2029 20:47:02.838    02 Mar 2029 20:52:31.768      328.93070398    
02 Mar 2029 22:21:44.832    02 Mar 2029 22:28:51.073      426.24079274    
02 Mar 2029 23:57:51.100    03 Mar 2029 00:04:51.380      420.28060548    
03 Mar 2029 01:33:55.198    03 Mar 2029 01:41:04.414      429.21667148    
03 Mar 2029 03:09:56.924    03 Mar 2029 03:16:29.607      392.68289446    
03 Mar 2029 19:52:29.173    03 Mar 2029 19:55:29.228      180.05454415    
03 Mar 2029 21:25:46.713    03 Mar 2029 21:32:41.870      415.15616449    
03 Mar 2029 23:01:37.020    03 Mar 2029 23:08:39.821      422.80144903    
04 Mar 2029 00:37:46.715    04 Mar 2029 00:44:50.837      424.12138850    
04 Mar 2029 02:13:43.431    04 Mar 2029 02:20:44.459      421.02771469    
04 Mar 2029 03:50:45.176    04 Mar 2029 03:54:15.760      210.58402330    
04 Mar 2029 20:30:03.458    04 Mar 2029 20:36:26.454      382.99687780    
04 Mar 2029 22:05:23.984    04 Mar 2029 22:12:30.080      426.09622157    
04 Mar 2029 23:41:35.042    04 Mar 2029 23:48:35.039      419.99715236    
05 Mar 2029 01:17:34.236    05 Mar 2029 01:24:43.631      429.39458272    
05 Mar 2029 02:53:49.916    05 Mar 2029 02:59:31.742      341.82581987    
05 Mar 2029 19:34:44.867    05 Mar 2029 19:39:56.117      311.25086972    
05 Mar 2029 21:09:15.994    05 Mar 2029 21:16:20.649      424.65480790    
05 Mar 2029 22:45:20.225    05 Mar 2029 22:52:19.867      419.64191672    
06 Mar 2029 00:21:25.310    06 Mar 2029 00:28:32.767      427.45621344    
06 Mar 2029 01:57:25.262    06 Mar 2029 02:04:03.883      398.62099310    
06 Mar 2029 18:40:30.460    06 Mar 2029 18:42:32.078      121.61814691    
06 Mar 2029 20:13:17.901    06 Mar 2029 20:20:08.676      410.77492316    
06 Mar 2029 21:49:03.932    06 Mar 2029 21:56:06.639      422.70628038    
06 Mar 2029 23:25:14.205    06 Mar 2029 23:32:16.466      422.26189849    
07 Mar 2029 01:01:10.801    07 Mar 2029 01:08:13.416      422.61498888    
07 Mar 2029 02:37:59.797    07 Mar 2029 02:42:02.789      242.99147143    
07 Mar 2029 19:17:35.985    07 Mar 2029 19:23:49.360      373.37541740    
07 Mar 2029 20:52:49.294    07 Mar 2029 20:59:55.035      425.74046133    
07 Mar 2029 22:28:59.755    07 Mar 2029 22:35:58.526      418.77052516    
08 Mar 2029 00:04:59.741    08 Mar 2029 00:12:08.334      428.59341401    
08 Mar 2029 01:41:11.187    08 Mar 2029 01:47:05.489      354.30248631    
08 Mar 2029 18:22:21.682    08 Mar 2029 18:27:12.286      290.60349661    
08 Mar 2029 19:56:40.490    08 Mar 2029 20:03:43.298      422.80789796    
08 Mar 2029 21:32:42.293    08 Mar 2029 21:39:41.549      419.25639811    
08 Mar 2029 23:08:48.384    08 Mar 2029 23:15:54.052      425.66779274    
09 Mar 2029 00:44:46.911    09 Mar 2029 00:51:30.664      403.75278796    
09 Mar 2029 19:00:42.563    09 Mar 2029 19:07:28.296      405.73237671    
09 Mar 2029 20:36:23.780    09 Mar 2029 20:43:26.555      422.77531824    
09 Mar 2029 22:12:34.497    09 Mar 2029 22:19:35.053      420.55658970    
09 Mar 2029 23:48:31.203    09 Mar 2029 23:55:34.957      423.75406155    
10 Mar 2029 01:25:10.002    10 Mar 2029 01:29:39.864      269.86147317    
10 Mar 2029 18:05:02.294    10 Mar 2029 18:11:04.642      362.34775423    
10 Mar 2029 19:40:07.586    10 Mar 2029 19:47:12.941      425.35480410    
10 Mar 2029 21:16:17.159    10 Mar 2029 21:23:14.967      417.80826424    
10 Mar 2029 22:52:18.063    10 Mar 2029 22:59:25.662      427.59871481    
11 Mar 2029 00:28:25.882    11 Mar 2029 00:34:31.222      365.33931100    
11 Mar 2029 17:09:53.448    11 Mar 2029 17:14:19.530      266.08175368    
11 Mar 2029 18:43:58.062    11 Mar 2029 18:50:58.697      420.63471460    
11 Mar 2029 20:19:57.001    11 Mar 2029 20:26:56.138      419.13705091    
11 Mar 2029 21:56:04.091    11 Mar 2029 22:03:07.997      423.90580270    
11 Mar 2029 23:32:01.527    11 Mar 2029 23:38:49.680      408.15256764    
12 Mar 2029 17:48:00.474    12 Mar 2029 17:54:40.382      399.90749066    
12 Mar 2029 19:23:36.284    12 Mar 2029 19:30:39.278      422.99389638    
12 Mar 2029 20:59:47.275    12 Mar 2029 21:06:46.329      419.05415242    
12 Mar 2029 22:35:44.311    12 Mar 2029 22:42:48.811      424.49943947    
13 Mar 2029 00:12:14.709    13 Mar 2029 00:17:07.464      292.75472086    
13 Mar 2029 16:52:22.250    13 Mar 2029 16:58:11.884      349.63391062    
13 Mar 2029 18:27:18.605    13 Mar 2029 18:34:23.500      424.89532189    
13 Mar 2029 20:03:26.958    13 Mar 2029 20:10:24.100      417.14194254    
13 Mar 2029 21:39:28.889    13 Mar 2029 21:46:35.353      426.46458044    
13 Mar 2029 23:15:33.630    13 Mar 2029 23:21:48.730      375.09941353    
14 Mar 2029 15:57:20.644    14 Mar 2029 16:01:16.850      236.20635183    
14 Mar 2029 17:31:08.489    14 Mar 2029 17:38:06.544      418.05471608    
14 Mar 2029 19:07:04.085    14 Mar 2029 19:14:03.374      419.28897343    
14 Mar 2029 20:43:12.135    14 Mar 2029 20:50:14.360      422.22470012    
14 Mar 2029 22:19:08.802    14 Mar 2029 22:26:00.689      411.88750011    
14 Mar 2029 23:56:44.143    14 Mar 2029 23:58:48.174      124.03135268    
15 Mar 2029 16:35:11.466    15 Mar 2029 16:41:44.618      393.15200496    
15 Mar 2029 18:10:41.212    15 Mar 2029 18:17:44.549      423.33708974    
15 Mar 2029 19:46:52.268    15 Mar 2029 19:53:50.068      417.80055771    
15 Mar 2029 21:22:49.844    15 Mar 2029 21:29:54.749      424.90461700    
15 Mar 2029 22:59:13.211    15 Mar 2029 23:04:25.783      312.57195835    
16 Mar 2029 15:39:35.814    16 Mar 2029 15:45:10.682      334.86891515    
16 Mar 2029 17:14:22.157    16 Mar 2029 17:21:26.462      424.30545667    
16 Mar 2029 18:50:28.915    16 Mar 2029 18:57:25.712      416.79642289    
16 Mar 2029 20:26:31.959    16 Mar 2029 20:33:37.204      425.24552242    
16 Mar 2029 22:02:34.129    16 Mar 2029 22:08:57.843      383.71419342    
17 Mar 2029 14:44:44.453    17 Mar 2029 14:48:02.666      198.21304805    
17 Mar 2029 16:18:11.622    17 Mar 2029 16:25:06.592      414.97020882    
17 Mar 2029 17:54:03.347    17 Mar 2029 18:01:03.054      419.70715789    
17 Mar 2029 19:30:12.283    17 Mar 2029 19:37:12.961      420.67783257    
17 Mar 2029 21:06:08.492    17 Mar 2029 21:13:03.511      415.01928570    
17 Mar 2029 22:43:19.057    17 Mar 2029 22:46:21.613      182.55595478    
18 Mar 2029 15:22:15.456    18 Mar 2029 15:28:40.741      385.28569717    
18 Mar 2029 16:57:38.412    18 Mar 2029 17:04:42.180      423.76780148    
18 Mar 2029 18:33:49.279    18 Mar 2029 18:40:46.115      416.83677672    
18 Mar 2029 20:09:47.591    18 Mar 2029 20:16:52.613      425.02250795    
18 Mar 2029 21:46:05.033    18 Mar 2029 21:51:34.923      329.89013758    
19 Mar 2029 14:26:43.083    19 Mar 2029 14:32:00.650      317.56665189    
19 Mar 2029 16:01:18.135    19 Mar 2029 16:08:21.650      423.51461027    
19 Mar 2029 17:37:22.878    19 Mar 2029 17:44:19.665      416.78718090    
19 Mar 2029 19:13:27.093    19 Mar 2029 19:20:31.088      423.99570805    
19 Mar 2029 20:49:27.165    19 Mar 2029 20:55:58.458      391.29289590    
20 Mar 2029 13:32:08.129    20 Mar 2029 13:34:33.492      145.36271801    
20 Mar 2029 15:05:07.405    20 Mar 2029 15:11:58.669      411.26454282    
20 Mar 2029 16:40:54.682    20 Mar 2029 16:47:55.057      420.37435215    
20 Mar 2029 18:17:04.389    20 Mar 2029 18:24:03.704      419.31550341    
20 Mar 2029 19:53:00.440    20 Mar 2029 19:59:58.046      417.60584473    
20 Mar 2029 21:29:54.467    20 Mar 2029 21:33:38.564      224.09689100    
21 Mar 2029 14:09:12.466    21 Mar 2029 14:15:28.556      376.08922661    
21 Mar 2029 15:44:27.822    21 Mar 2029 15:51:32.058      424.23546390    
21 Mar 2029 17:20:38.200    21 Mar 2029 17:27:34.396      416.19629884    
21 Mar 2029 18:56:37.426    21 Mar 2029 19:03:42.331      424.90531700    
21 Mar 2029 20:32:49.872    21 Mar 2029 20:38:34.979      345.10697946    
22 Mar 2029 13:13:44.335    22 Mar 2029 13:18:41.387      297.05211539    
22 Mar 2029 14:48:06.522    22 Mar 2029 14:55:08.959      422.43708739    
22 Mar 2029 16:24:08.781    22 Mar 2029 16:31:05.899      417.11826723    
22 Mar 2029 18:00:14.194    22 Mar 2029 18:07:16.961      422.76776541    
22 Mar 2029 19:36:12.614    22 Mar 2029 19:42:50.543      397.92866382    
23 Mar 2029 12:19:53.474    23 Mar 2029 12:20:27.453      33.978708903    
23 Mar 2029 13:51:55.870    23 Mar 2029 13:58:42.669      406.79946853    
23 Mar 2029 15:27:38.069    23 Mar 2029 15:34:39.329      421.25999095    
23 Mar 2029 17:03:48.386    23 Mar 2029 17:10:46.569      418.18319745    
23 Mar 2029 18:39:44.566    23 Mar 2029 18:46:44.268      419.70194079    
23 Mar 2029 20:16:26.130    23 Mar 2029 20:20:43.159      257.02967858    
24 Mar 2029 12:56:02.618    24 Mar 2029 13:02:07.910      365.29181170    
24 Mar 2029 14:31:09.461    24 Mar 2029 14:38:14.137      424.67552262    
24 Mar 2029 16:07:19.001    24 Mar 2029 16:14:14.904      415.90349026    
24 Mar 2029 17:43:19.294    24 Mar 2029 17:50:23.898      424.60402393    
24 Mar 2029 19:19:27.549    24 Mar 2029 19:25:26.060      358.51104419    
25 Mar 2029 12:00:40.071    25 Mar 2029 12:05:12.397      272.32542989    
25 Mar 2029 13:34:47.371    25 Mar 2029 13:41:48.342      420.97097277    
25 Mar 2029 15:10:46.629    25 Mar 2029 15:17:44.411      417.78141239    
25 Mar 2029 16:46:53.228    25 Mar 2029 16:53:54.839      421.61181337    
25 Mar 2029 18:22:50.418    25 Mar 2029 18:29:34.120      403.70195213    
26 Mar 2029 12:38:37.115    26 Mar 2029 12:45:18.526      401.41088379    
26 Mar 2029 14:14:13.543    26 Mar 2029 14:21:15.863      422.31997439    
26 Mar 2029 15:50:24.262    26 Mar 2029 15:57:21.582      417.32048399    
26 Mar 2029 17:26:20.841    26 Mar 2029 17:33:22.200      421.35934134    
26 Mar 2029 19:02:52.531    26 Mar 2029 19:07:36.895      284.36398704    
27 Mar 2029 11:42:46.106    27 Mar 2029 11:48:38.657      352.55132936    
27 Mar 2029 13:17:43.392    27 Mar 2029 13:24:48.401      425.00910246    
27 Mar 2029 14:53:51.692    27 Mar 2029 15:00:47.664      415.97274971    
27 Mar 2029 16:29:53.179    27 Mar 2029 16:36:57.347      424.16813532    
27 Mar 2029 18:05:57.953    27 Mar 2029 18:12:08.272      370.31937445    
28 Mar 2029 10:47:31.132    28 Mar 2029 10:51:32.893      241.76042519    
28 Mar 2029 12:21:20.770    28 Mar 2029 12:28:19.766      418.99654863    
28 Mar 2029 13:57:16.459    28 Mar 2029 14:04:15.214      418.75566813    
28 Mar 2029 15:33:24.185    28 Mar 2029 15:40:24.760      420.57494922    
28 Mar 2029 17:09:20.545    28 Mar 2029 17:16:09.228      408.68317323    
28 Mar 2029 18:47:02.231    28 Mar 2029 18:48:48.085      105.85448141    
29 Mar 2029 11:25:11.264    29 Mar 2029 11:31:46.168      394.90323075    
29 Mar 2029 13:00:41.160    29 Mar 2029 13:07:44.657      423.49653711    
29 Mar 2029 14:36:52.016    29 Mar 2029 14:43:48.776      416.76013826    
29 Mar 2029 16:12:49.242    29 Mar 2029 16:19:51.869      422.62760794    
29 Mar 2029 17:49:12.917    29 Mar 2029 17:54:20.516      307.59858491    
30 Mar 2029 10:29:23.170    30 Mar 2029 10:35:00.595      337.42461976    
30 Mar 2029 12:04:09.681    30 Mar 2029 12:11:14.823      425.14262712    
30 Mar 2029 13:40:16.285    30 Mar 2029 13:47:12.693      416.40742379    
30 Mar 2029 15:16:19.055    30 Mar 2029 15:23:22.701      423.64582310    
30 Mar 2029 16:52:20.990    30 Mar 2029 16:58:41.691      380.70156832    
31 Mar 2029 09:34:19.058    31 Mar 2029 09:37:41.356      202.29750210    
31 Mar 2029 11:07:46.798    31 Mar 2029 11:14:43.173      416.37501412    
31 Mar 2029 12:43:38.292    31 Mar 2029 12:50:38.299      420.00654145    
31 Mar 2029 14:19:47.038    31 Mar 2029 14:26:46.739      419.70035409    
31 Mar 2029 15:55:42.944    31 Mar 2029 16:02:35.880      412.93653102    
31 Mar 2029 17:32:54.401    31 Mar 2029 17:35:51.423      177.02218752    
01 Apr 2029 10:11:38.431    01 Apr 2029 10:18:05.475      387.04377579    
01 Apr 2029 11:47:00.951    01 Apr 2029 11:54:05.668      424.71788717    
01 Apr 2029 13:23:11.624    01 Apr 2029 13:30:08.151      416.52627499    
01 Apr 2029 14:59:09.718    01 Apr 2029 15:06:13.273      423.55547237    
01 Apr 2029 16:35:26.811    01 Apr 2029 16:40:54.427      327.61581566    
02 Apr 2029 09:15:54.092    02 Apr 2029 09:21:13.411      319.31967465    
02 Apr 2029 10:50:28.365    02 Apr 2029 10:57:33.332      424.96780220    
02 Apr 2029 12:26:32.763    02 Apr 2029 12:33:29.961      417.19814886    
02 Apr 2029 14:02:36.863    02 Apr 2029 14:09:39.947      423.08361690    
02 Apr 2029 15:38:36.541    02 Apr 2029 15:45:06.339      389.79771567    
03 Apr 2029 08:21:07.641    03 Apr 2029 08:23:33.933      146.29175453    
03 Apr 2029 09:54:05.503    03 Apr 2029 10:00:58.450      412.94695423    
03 Apr 2029 11:29:52.119    03 Apr 2029 11:36:53.605      421.48567652    
03 Apr 2029 13:06:01.723    03 Apr 2029 13:13:00.749      419.02597068    
03 Apr 2029 14:41:57.524    03 Apr 2029 14:48:54.047      416.52298656    
03 Apr 2029 16:18:50.501    03 Apr 2029 16:22:34.552      224.05109029    
04 Apr 2029 08:57:58.710    04 Apr 2029 09:04:16.261      377.55123462    
04 Apr 2029 10:33:12.909    04 Apr 2029 10:40:18.807      425.89887396    
04 Apr 2029 12:09:23.021    04 Apr 2029 12:16:19.654      416.63358839    
04 Apr 2029 13:45:22.172    04 Apr 2029 13:52:26.363      424.19106538    
04 Apr 2029 15:21:33.843    04 Apr 2029 15:27:18.836      344.99236123    
05 Apr 2029 08:02:19.227    05 Apr 2029 08:07:16.624      297.39751088    
05 Apr 2029 09:36:39.441    05 Apr 2029 09:43:43.802      424.36113178    
05 Apr 2029 11:12:41.066    05 Apr 2029 11:19:39.389      418.32369219    
05 Apr 2029 12:48:46.497    05 Apr 2029 12:55:49.023      422.52624433    
05 Apr 2029 14:24:44.451    05 Apr 2029 14:31:22.177      397.72539565    
06 Apr 2029 08:40:16.899    06 Apr 2029 08:47:05.426      408.52726637    
06 Apr 2029 10:15:57.888    06 Apr 2029 10:23:01.020      423.13248098    
06 Apr 2029 11:52:08.127    06 Apr 2029 11:59:06.712      418.58500735    
06 Apr 2029 13:28:04.147    06 Apr 2029 13:35:03.647      419.49969730    
06 Apr 2029 15:04:43.702    06 Apr 2029 15:09:04.071      260.36906086    
07 Apr 2029 07:44:12.181    07 Apr 2029 07:50:18.257      366.07549848    
07 Apr 2029 09:19:16.988    07 Apr 2029 09:26:23.930      426.94152037    
07 Apr 2029 10:55:26.100    07 Apr 2029 11:02:23.188      417.08834918    
07 Apr 2029 12:31:26.462    07 Apr 2029 12:38:31.044      424.58184888    
07 Apr 2029 14:07:33.685    07 Apr 2029 14:13:33.813      360.12773572    
08 Apr 2029 06:48:39.112    08 Apr 2029 06:53:09.489      270.37697467    
08 Apr 2029 08:22:42.875    08 Apr 2029 08:29:46.057      423.18225597    
08 Apr 2029 09:58:41.099    08 Apr 2029 10:05:40.851      419.75162902    
08 Apr 2029 11:34:47.811    08 Apr 2029 11:41:49.828      422.01702863    
08 Apr 2029 13:10:44.535    08 Apr 2029 13:17:29.118      404.58387597    
09 Apr 2029 07:26:20.980    09 Apr 2029 07:33:03.879      402.89987755    
09 Apr 2029 09:01:55.519    09 Apr 2029 09:09:00.393      424.87399079    
09 Apr 2029 10:38:06.110    09 Apr 2029 10:45:04.516      418.40562006    
09 Apr 2029 12:14:02.646    09 Apr 2029 12:21:04.568      421.92134417    
09 Apr 2029 13:50:31.827    09 Apr 2029 13:55:21.858      290.03076599    
10 Apr 2029 06:30:18.950    10 Apr 2029 06:36:11.123      352.17254665    
10 Apr 2029 08:05:13.128    10 Apr 2029 08:12:20.862      427.73431556    
10 Apr 2029 09:41:20.738    10 Apr 2029 09:48:18.625      417.88712967    
10 Apr 2029 11:17:22.426    10 Apr 2029 11:24:27.201      424.77543784    
10 Apr 2029 12:53:26.041    10 Apr 2029 12:59:39.355      373.31420017    
11 Apr 2029 05:34:54.717    11 Apr 2029 05:38:50.801      236.08392837    
11 Apr 2029 07:08:38.630    11 Apr 2029 07:15:39.902      421.27255155    
11 Apr 2029 08:44:32.767    11 Apr 2029 08:51:34.204      421.43707772    
11 Apr 2029 10:20:40.651    11 Apr 2029 10:27:42.249      421.59738948    
11 Apr 2029 11:56:36.601    11 Apr 2029 12:03:27.061      410.46060116    
11 Apr 2029 13:34:06.238    11 Apr 2029 13:36:18.589      132.35119761    
12 Apr 2029 06:12:17.763    12 Apr 2029 06:18:53.574      395.81176818    
12 Apr 2029 07:47:44.946    12 Apr 2029 07:54:51.570      426.62430505    
12 Apr 2029 09:23:55.544    12 Apr 2029 09:30:54.053      418.50940614    
12 Apr 2029 10:59:52.859    12 Apr 2029 11:06:56.701      423.84196403    
12 Apr 2029 12:36:13.790    12 Apr 2029 12:41:28.720      314.92977535    
13 Apr 2029 05:16:19.211    13 Apr 2029 05:21:54.472      335.26149311    
13 Apr 2029 06:51:01.294    13 Apr 2029 06:58:09.446      428.15184623    
13 Apr 2029 08:27:06.842    13 Apr 2029 08:34:05.857      419.01559022    
13 Apr 2029 10:03:09.922    13 Apr 2029 10:10:14.742      424.81976092    
13 Apr 2029 11:39:10.671    13 Apr 2029 11:45:35.447      384.77564160    
14 Apr 2029 04:21:08.190    14 Apr 2029 04:24:18.257      190.06752387    
14 Apr 2029 05:54:26.717    14 Apr 2029 06:01:25.171      418.45304298    
14 Apr 2029 07:30:16.019    14 Apr 2029 07:37:19.341      423.32249957    
14 Apr 2029 09:06:24.909    14 Apr 2029 09:13:26.215      421.30616665    
14 Apr 2029 10:42:20.506    14 Apr 2029 10:49:15.941      415.43469880    
14 Apr 2029 12:19:23.259    14 Apr 2029 12:22:41.389      198.12936438    
15 Apr 2029 04:58:07.343    15 Apr 2029 05:04:34.306      386.96227792    
15 Apr 2029 06:33:26.164    15 Apr 2029 06:40:34.449      428.28480355    
15 Apr 2029 08:09:36.359    15 Apr 2029 08:16:35.269      418.91060688    
15 Apr 2029 09:45:34.684    15 Apr 2029 09:52:39.999      425.31552681    
15 Apr 2029 11:21:48.970    15 Apr 2029 11:27:25.106      336.13590781    
16 Apr 2029 04:02:13.334    16 Apr 2029 04:07:27.878      314.54363940    
16 Apr 2029 05:36:41.532    16 Apr 2029 05:43:49.586      428.05415264    
16 Apr 2029 07:12:44.396    16 Apr 2029 07:19:44.844      420.44818278    
16 Apr 2029 08:48:48.886    16 Apr 2029 08:55:53.650      424.76302371    
16 Apr 2029 10:24:47.435    16 Apr 2029 10:31:22.123      394.68871239    
17 Apr 2029 03:07:26.434    17 Apr 2029 03:09:24.959      118.52528939    
17 Apr 2029 04:40:07.245    17 Apr 2029 04:47:01.766      414.52058908    
17 Apr 2029 06:15:50.896    17 Apr 2029 06:22:56.234      425.33786029    
17 Apr 2029 07:52:00.561    17 Apr 2029 07:59:01.740      421.17911638    
17 Apr 2029 09:27:56.196    17 Apr 2029 09:34:55.775      419.57898110    
17 Apr 2029 11:04:41.691    17 Apr 2029 11:08:45.531      243.84022305    
18 Apr 2029 03:43:49.943    18 Apr 2029 03:50:05.929      375.98598492    
18 Apr 2029 05:18:59.272    18 Apr 2029 05:26:09.016      429.74406942    
18 Apr 2029 06:55:08.588    18 Apr 2029 07:02:08.203      419.61541157    
18 Apr 2029 08:31:08.112    18 Apr 2029 08:38:14.509      426.39652546    
18 Apr 2029 10:07:17.042    18 Apr 2029 10:13:11.366      354.32349178    
19 Apr 2029 02:48:01.981    19 Apr 2029 02:52:50.824      288.84285092    
19 Apr 2029 04:22:13.997    19 Apr 2029 04:29:21.283      427.28531660    
19 Apr 2029 05:58:13.495    19 Apr 2029 06:05:15.642      422.14766247    
19 Apr 2029 07:34:19.356    19 Apr 2029 07:41:24.010      424.65367068    
19 Apr 2029 09:10:16.309    19 Apr 2029 09:16:59.505      403.19682072    
20 Apr 2029 03:25:40.442    20 Apr 2029 03:32:29.684      409.24251691    
20 Apr 2029 05:01:17.556    20 Apr 2029 05:08:24.957      427.40036073    
20 Apr 2029 06:37:27.698    20 Apr 2029 06:44:28.946      421.24804863    
20 Apr 2029 08:13:23.725    20 Apr 2029 08:20:26.687      422.96243218    
20 Apr 2029 09:49:56.610    20 Apr 2029 09:54:36.105      279.49548159    
21 Apr 2029 02:29:25.938    21 Apr 2029 02:35:28.364      362.42654297    
21 Apr 2029 04:04:24.484    21 Apr 2029 04:11:35.361      430.87728219    
21 Apr 2029 05:40:32.380    21 Apr 2029 05:47:33.001      420.62055630    
21 Apr 2029 07:16:33.249    21 Apr 2029 07:23:40.390      427.14079163    
21 Apr 2029 08:52:37.896    21 Apr 2029 08:58:47.847      369.95123749    
22 Apr 2029 01:33:46.288    22 Apr 2029 01:38:02.535      256.24733741    
22 Apr 2029 03:07:38.962    22 Apr 2029 03:14:44.634      425.67160609    
22 Apr 2029 04:43:34.350    22 Apr 2029 04:50:38.413      424.06391515    
22 Apr 2029 06:19:41.480    22 Apr 2029 06:26:46.020      424.53981594    
22 Apr 2029 07:55:37.389    22 Apr 2029 08:02:27.811      410.42141095    
22 Apr 2029 09:33:21.990    22 Apr 2029 09:35:00.358      98.367938900    
23 Apr 2029 02:11:06.658    23 Apr 2029 02:17:49.008      402.34961902    
23 Apr 2029 03:46:36.267    23 Apr 2029 03:53:45.680      429.41370446    
23 Apr 2029 05:22:46.518    23 Apr 2029 05:29:48.057      421.53891219    
23 Apr 2029 06:58:43.253    23 Apr 2029 07:05:48.906      425.65297281    
23 Apr 2029 08:35:06.451    23 Apr 2029 08:40:15.043      308.59265956    
24 Apr 2029 01:14:55.864    24 Apr 2029 01:20:41.558      345.69402711    
24 Apr 2029 02:49:42.117    24 Apr 2029 02:56:53.663      431.54553791    
24 Apr 2029 04:25:47.989    24 Apr 2029 04:32:49.900      421.91112464    
24 Apr 2029 06:01:50.294    24 Apr 2029 06:08:57.900      427.60580778    
24 Apr 2029 07:37:51.579    24 Apr 2029 07:44:14.932      383.35256920    
25 Apr 2029 00:19:28.344    25 Apr 2029 00:23:01.454      213.10994660    
25 Apr 2029 01:52:56.795    25 Apr 2029 01:59:59.815      423.01936804    
25 Apr 2029 03:28:47.266    25 Apr 2029 03:35:53.399      426.13257441    
25 Apr 2029 05:04:55.496    25 Apr 2029 05:11:59.963      424.46758394    
25 Apr 2029 06:40:50.865    25 Apr 2029 06:47:47.336      416.47084001    
25 Apr 2029 08:17:59.416    25 Apr 2029 08:21:03.531      184.11576042    
26 Apr 2029 00:56:26.343    26 Apr 2029 01:02:59.869      393.52576701    
26 Apr 2029 02:31:47.378    26 Apr 2029 02:38:58.645      431.26769448    
26 Apr 2029 04:07:57.299    26 Apr 2029 04:14:59.369      422.06914562    
26 Apr 2029 05:43:55.014    26 Apr 2029 05:51:02.733      427.71925014    
26 Apr 2029 07:20:10.604    26 Apr 2029 07:25:43.465      332.86047798    
27 Apr 2029 00:00:20.428    27 Apr 2029 00:05:45.414      324.98609716    
27 Apr 2029 01:34:52.560    27 Apr 2029 01:42:04.155      431.59533899    
27 Apr 2029 03:10:55.736    27 Apr 2029 03:17:59.195      423.45861644    
27 Apr 2029 04:46:59.507    27 Apr 2029 04:54:07.357      427.84989278    
27 Apr 2029 06:22:58.236    27 Apr 2029 06:29:33.021      394.78476994    
27 Apr 2029 23:05:13.236    27 Apr 2029 23:07:43.122      149.88544701    
28 Apr 2029 00:38:07.924    28 Apr 2029 00:45:07.035      419.11130296    
28 Apr 2029 02:13:52.605    28 Apr 2029 02:21:00.880      428.27475909    
28 Apr 2029 03:50:01.689    28 Apr 2029 03:57:06.168      424.47904756    
28 Apr 2029 05:25:56.973    28 Apr 2029 05:32:58.418      421.44545879    
28 Apr 2029 07:02:45.289    28 Apr 2029 07:06:42.448      237.15893417    
28 Apr 2029 23:41:40.008    28 Apr 2029 23:48:02.396      382.38857794    
29 Apr 2029 01:16:51.276    29 Apr 2029 01:24:04.115      432.83865005    
29 Apr 2029 02:53:00.356    29 Apr 2029 03:00:03.202      422.84608141    
29 Apr 2029 04:28:59.271    29 Apr 2029 04:36:08.501      429.23077351    
29 Apr 2029 06:05:08.847    29 Apr 2029 06:11:02.159      353.31252299    
29 Apr 2029 22:45:40.534    29 Apr 2029 22:50:39.660      299.12529301    
30 Apr 2029 00:19:56.217    30 Apr 2029 00:27:07.074      430.85718448    
30 Apr 2029 01:55:55.962    30 Apr 2029 02:03:01.183      425.22098492    
30 Apr 2029 03:32:01.163    30 Apr 2029 03:39:09.094      427.93122092    
30 Apr 2029 05:07:58.047    30 Apr 2029 05:14:42.502      404.45448307    
30 Apr 2029 23:23:12.783    30 Apr 2029 23:30:06.482      413.69881786    
01 May 2029 00:58:50.725    01 May 2029 01:06:01.123      430.39804520    
01 May 2029 02:35:00.342    01 May 2029 02:42:04.953      424.61128382    
01 May 2029 04:10:55.945    01 May 2029 04:18:01.384      425.43961838    
01 May 2029 05:47:30.138    01 May 2029 05:52:07.109      276.97088378    
01 May 2029 22:26:48.187    01 May 2029 22:32:56.644      368.45662147    
02 May 2029 00:01:48.330    02 May 2029 00:09:02.319      433.98937084    
02 May 2029 01:37:55.982    02 May 2029 01:44:59.848      423.86637297    
02 May 2029 03:13:56.258    02 May 2029 03:21:06.516      430.25787453    
02 May 2029 04:50:01.102    02 May 2029 04:56:11.710      370.60808617    
02 May 2029 21:30:57.413    02 May 2029 21:35:23.613      266.20021134    
02 May 2029 23:04:53.461    02 May 2029 23:12:02.604      429.14290214    
03 May 2029 00:40:48.972    03 May 2029 00:47:56.115      427.14237707    
03 May 2029 02:16:55.491    03 May 2029 02:24:03.398      427.90699146    
03 May 2029 03:52:51.163    03 May 2029 03:59:43.697      412.53432445    
03 May 2029 05:30:40.803    03 May 2029 05:32:09.049      88.246034249    
03 May 2029 22:08:11.770    03 May 2029 22:14:58.263      406.49283829    
03 May 2029 23:43:41.935    03 May 2029 23:50:54.331      432.39610191    
04 May 2029 01:19:51.683    04 May 2029 01:26:56.578      424.89430726    
04 May 2029 02:55:47.956    04 May 2029 03:02:56.501      428.54470174    
04 May 2029 04:32:11.582    04 May 2029 04:37:20.312      308.73021288    
04 May 2029 21:11:51.421    04 May 2029 21:17:42.522      351.10092169    
04 May 2029 22:46:38.844    04 May 2029 22:53:53.412      434.56833131    
05 May 2029 00:22:44.410    05 May 2029 00:29:49.523      425.11355742    
05 May 2029 01:58:46.145    05 May 2029 02:05:57.017      430.87173222    
05 May 2029 03:34:47.320    05 May 2029 03:41:12.533      385.21348749    
05 May 2029 20:16:13.070    05 May 2029 20:19:55.661      222.59114800    
05 May 2029 21:49:44.598    05 May 2029 21:56:50.841      426.24290561    
05 May 2029 23:25:35.003    05 May 2029 23:32:44.155      429.15180341    
06 May 2029 01:01:42.650    06 May 2029 01:08:50.482      427.83130193    
06 May 2029 02:37:37.671    06 May 2029 02:44:36.847      419.17591078    
06 May 2029 04:14:46.853    06 May 2029 04:17:50.737      183.88341124    
06 May 2029 20:53:05.229    06 May 2029 20:59:42.380      397.15064865    
06 May 2029 22:28:26.471    06 May 2029 22:35:40.619      434.14865916    
07 May 2029 00:04:35.869    07 May 2029 00:11:41.218      425.34853496    
07 May 2029 01:40:33.104    07 May 2029 01:47:43.955      430.85075787    
07 May 2029 03:16:48.578    07 May 2029 03:22:23.351      334.77300312    
07 May 2029 19:56:50.288    07 May 2029 20:02:19.740      329.45259470    
07 May 2029 21:31:23.050    07 May 2029 21:38:37.459      434.40906624    
07 May 2029 23:07:25.800    07 May 2029 23:14:32.357      426.55722038    
08 May 2029 00:43:29.021    08 May 2029 00:50:40.164      431.14336089    
08 May 2029 02:19:27.431    08 May 2029 02:26:04.910      397.47918866    
08 May 2029 19:01:32.260    08 May 2029 19:04:11.286      159.02567888    
08 May 2029 20:34:29.867    08 May 2029 20:41:31.788      421.92079254    
08 May 2029 22:10:14.220    08 May 2029 22:17:25.385      431.16422774    
08 May 2029 23:46:22.723    08 May 2029 23:53:30.477      427.75388866    
09 May 2029 01:22:17.588    09 May 2029 01:29:22.103      424.51516717    
09 May 2029 02:59:05.375    09 May 2029 03:03:05.431      240.05587455    
09 May 2029 19:37:53.465    09 May 2029 19:44:18.717      385.25164422    
09 May 2029 21:13:04.499    09 May 2029 21:20:20.021      435.52247394    
09 May 2029 22:49:12.986    09 May 2029 22:56:18.970      425.98449447    
10 May 2029 00:25:11.415    10 May 2029 00:32:23.862      432.44639992    
10 May 2029 02:01:20.528    10 May 2029 02:07:16.930      356.40270972    
10 May 2029 18:41:45.508    10 May 2029 18:46:47.723      302.21536628    
10 May 2029 20:16:01.117    10 May 2029 20:23:14.446      433.32843503    
10 May 2029 21:52:00.249    10 May 2029 21:59:08.403      428.15393679    
10 May 2029 23:28:04.906    10 May 2029 23:35:16.049      431.14323139    
11 May 2029 01:04:01.334    11 May 2029 01:10:49.013      407.67912611    
11 May 2029 19:19:09.462    11 May 2029 19:26:05.366      415.90483021    
11 May 2029 20:54:46.732    11 May 2029 21:01:59.814      433.08175405    
11 May 2029 22:30:55.734    11 May 2029 22:38:03.453      427.71981686    
12 May 2029 00:06:50.877    12 May 2029 00:13:59.553      428.67637411    
12 May 2029 01:43:24.001    12 May 2029 01:48:05.523      281.52179735    
12 May 2029 18:22:36.785    12 May 2029 18:28:47.045      370.25996614    
12 May 2029 19:57:36.137    12 May 2029 20:04:52.508      436.37121959    
12 May 2029 21:33:43.071    12 May 2029 21:40:49.874      426.80265005    
12 May 2029 23:09:42.862    12 May 2029 23:16:56.281      433.41993556    
13 May 2029 00:45:47.021    13 May 2029 00:52:01.462      374.44135565    
13 May 2029 17:26:38.181    13 May 2029 17:31:05.424      267.24300800    
13 May 2029 19:00:33.178    13 May 2029 19:07:44.302      431.12343166    
13 May 2029 20:36:27.819    13 May 2029 20:43:37.666      429.84729696    
13 May 2029 22:12:33.781    13 May 2029 22:19:44.722      430.94133649    
13 May 2029 23:48:28.912    13 May 2029 23:55:24.948      416.03638942    
14 May 2029 01:26:11.518    14 May 2029 01:27:56.765      105.24749479    
14 May 2029 18:03:43.562    14 May 2029 18:10:31.438      407.87618109    
14 May 2029 19:39:12.621    14 May 2029 19:46:27.415      434.79333009    
14 May 2029 21:15:21.680    14 May 2029 21:22:29.449      427.76833676    
14 May 2029 22:51:17.475    14 May 2029 22:58:29.251      431.77658360    
15 May 2029 00:27:39.749    15 May 2029 00:32:53.961      314.21257728    
15 May 2029 17:07:15.564    15 May 2029 17:13:07.027      351.46250630    
15 May 2029 18:42:01.490    15 May 2029 18:49:18.024      436.53390824    
15 May 2029 20:18:06.155    15 May 2029 20:25:13.946      427.79172007    
15 May 2029 21:54:07.402    15 May 2029 22:01:21.262      433.86014766    
15 May 2029 23:30:07.760    15 May 2029 23:36:37.213      389.45342721    
16 May 2029 16:11:30.429    16 May 2029 16:15:10.761      220.33135118    
16 May 2029 17:44:59.372    16 May 2029 17:52:06.939      427.56647203    
16 May 2029 19:20:48.573    16 May 2029 19:28:00.139      431.56665999    
16 May 2029 20:56:55.628    16 May 2029 21:04:06.234      430.60591849    
16 May 2029 22:32:50.064    16 May 2029 22:39:52.805      422.74032610    
17 May 2029 00:09:55.129    17 May 2029 00:13:10.628      195.49876956    
17 May 2029 16:48:12.391    17 May 2029 16:54:49.843      397.45168397    
17 May 2029 18:23:31.988    17 May 2029 18:30:48.162      436.17386066    
17 May 2029 19:59:40.578    17 May 2029 20:06:48.508      427.93053350    
17 May 2029 21:35:37.334    17 May 2029 21:42:51.262      433.92868701    
17 May 2029 23:11:51.314    17 May 2029 23:17:32.039      340.72502463    
18 May 2029 15:51:50.343    18 May 2029 15:57:18.198      327.85408980    
18 May 2029 17:26:20.694    18 May 2029 17:33:36.527      435.83311775    
18 May 2029 19:02:22.295    18 May 2029 19:09:31.222      428.92683889    
18 May 2029 20:38:25.020    18 May 2029 20:45:38.877      433.85616993    
18 May 2029 22:14:22.547    18 May 2029 22:21:04.400      401.85295448    
19 May 2029 14:56:28.108    19 May 2029 14:58:57.978      149.87042591    
19 May 2029 16:29:19.888    19 May 2029 16:36:22.287      422.39918306    
19 May 2029 18:05:02.619    19 May 2029 18:12:15.846      433.22651696    
19 May 2029 19:41:10.465    19 May 2029 19:48:20.667      430.20174679    
19 May 2029 21:17:04.739    19 May 2029 21:24:12.697      427.95775248    
19 May 2029 22:53:49.018    19 May 2029 22:57:59.711      250.69287366    
20 May 2029 15:32:36.258    20 May 2029 15:39:00.414      384.15624022    
20 May 2029 17:07:44.984    20 May 2029 17:15:02.068      437.08377356    
20 May 2029 18:43:52.493    20 May 2029 18:51:00.720      428.22729342    
20 May 2029 20:19:50.454    20 May 2029 20:27:05.697      435.24336505    
20 May 2029 21:55:58.023    20 May 2029 22:02:00.510      362.48715513    
21 May 2029 14:36:21.981    21 May 2029 14:41:19.877      297.89578852    
21 May 2029 16:10:33.945    21 May 2029 16:17:48.018      434.07249909    
21 May 2029 17:46:31.614    21 May 2029 17:53:41.783      430.16853748    
21 May 2029 19:22:35.757    21 May 2029 19:29:49.254      433.49696001    
21 May 2029 20:58:31.288    21 May 2029 21:05:23.248      411.95986600    
22 May 2029 15:13:34.988    22 May 2029 15:20:30.310      415.32229716    
22 May 2029 16:49:10.130    22 May 2029 16:56:24.857      434.72641861    
22 May 2029 18:25:18.378    22 May 2029 18:32:28.166      429.78853143    
22 May 2029 20:01:12.950    22 May 2029 20:08:24.790      431.84011047    
22 May 2029 21:37:42.905    22 May 2029 21:42:34.450      291.54493752    
23 May 2029 14:16:55.601    23 May 2029 14:23:02.976      367.37462862    
23 May 2029 15:51:51.828    23 May 2029 15:59:09.196      437.36821397    
23 May 2029 17:27:57.561    23 May 2029 17:35:06.229      428.66787737    
23 May 2029 19:03:56.900    23 May 2029 19:11:12.730      435.83032060    
23 May 2029 20:39:59.531    23 May 2029 20:46:19.923      380.39206581    
24 May 2029 13:20:51.956    24 May 2029 13:25:10.878      258.92248163    
24 May 2029 14:54:41.509    24 May 2029 15:01:52.542      431.03249785    
24 May 2029 16:30:34.300    24 May 2029 16:37:45.762      431.46224777    
24 May 2029 18:06:39.714    24 May 2029 18:13:52.585      432.87076080    
24 May 2029 19:42:33.977    24 May 2029 19:49:34.010      420.03239124    
24 May 2029 21:20:03.088    24 May 2029 21:22:20.172      137.08379364    
25 May 2029 13:57:45.019    25 May 2029 14:04:30.999      405.97999751    
25 May 2029 15:33:11.343    25 May 2029 15:40:27.293      435.95068211    
25 May 2029 17:09:19.508    25 May 2029 17:16:28.928      429.41930786    
25 May 2029 18:45:14.774    25 May 2029 18:52:29.303      434.52899808    
25 May 2029 20:21:34.148    25 May 2029 20:26:57.754      323.60547072    
26 May 2029 13:01:11.019    26 May 2029 13:06:57.287      346.26753536    
26 May 2029 14:35:52.794    26 May 2029 14:43:09.649      436.85537885    
26 May 2029 16:11:55.974    26 May 2029 16:19:05.222      429.24808916    
26 May 2029 17:47:56.787    26 May 2029 17:55:12.586      435.79946053    
26 May 2029 19:23:55.681    26 May 2029 19:30:30.732      395.05014267    
27 May 2029 12:05:23.291    27 May 2029 12:08:48.554      205.26326504    
27 May 2029 13:38:43.708    27 May 2029 13:45:50.173      426.46471089    
27 May 2029 15:14:30.593    27 May 2029 15:21:43.330      432.73696017    
27 May 2029 16:50:37.038    27 May 2029 16:57:49.102      432.06373818    
27 May 2029 18:26:30.671    27 May 2029 18:33:36.961      426.28938368    
27 May 2029 20:03:28.236    27 May 2029 20:07:03.483      215.24688400    
28 May 2029 12:41:50.401    28 May 2029 12:48:24.339      393.93825755    
28 May 2029 14:17:06.534    28 May 2029 14:24:23.302      436.76737673    
28 May 2029 15:53:14.043    28 May 2029 16:00:23.181      429.13731256    
28 May 2029 17:29:10.326    28 May 2029 17:36:26.487      436.16120734    
28 May 2029 19:05:21.658    28 May 2029 19:11:11.044      349.38585606    
29 May 2029 11:45:23.328    29 May 2029 11:50:42.940      319.61193695    
29 May 2029 13:19:48.194    29 May 2029 13:27:03.549      435.35462382    
29 May 2029 14:55:47.961    29 May 2029 15:02:57.909      429.94736242    
29 May 2029 16:31:50.258    29 May 2029 16:39:05.519      435.26092556    
29 May 2029 18:07:46.427    29 May 2029 18:14:33.339      406.91172557    
