data/GSContactData60Matera.txt

Target: DefaultSC

Observer: GroundStation2
Start Time (UTC)            Stop Time (UTC)               Duration (s)         
01 Jan 2029 18:20:13.382    01 Jan 2029 18:24:06.020      232.63801031    
02 Jan 2029 02:23:49.785    02 Jan 2029 02:27:14.271      204.48545575    
02 Jan 2029 17:25:14.761    02 Jan 2029 17:29:10.905      236.14343726    
03 Jan 2029 01:28:36.907    03 Jan 2029 01:32:39.327      242.41959985    
03 Jan 2029 16:32:15.545    03 Jan 2029 16:32:32.627      17.082554195    
03 Jan 2029 18:06:26.978    03 Jan 2029 18:09:03.504      156.52596181    
04 Jan 2029 00:34:12.964    04 Jan 2029 00:36:56.138      163.17495292    
04 Jan 2029 17:10:38.512    04 Jan 2029 17:14:42.670      244.15786240    
05 Jan 2029 01:14:10.527    05 Jan 2029 01:17:59.578      229.05111064    
05 Jan 2029 16:15:56.998    05 Jan 2029 16:19:31.879      214.88094855    
06 Jan 2029 00:19:10.382    06 Jan 2029 00:23:03.173      232.79113228    
06 Jan 2029 16:56:32.116    06 Jan 2029 16:59:48.754      196.63771209    
06 Jan 2029 23:25:07.979    06 Jan 2029 23:26:49.383      101.40382567    
07 Jan 2029 01:00:20.297    07 Jan 2029 01:02:29.724      129.42710017    
07 Jan 2029 16:01:02.959    07 Jan 2029 16:05:10.259      247.29962643    
08 Jan 2029 00:04:30.840    08 Jan 2029 00:08:32.662      241.82167794    
08 Jan 2029 15:06:42.388    08 Jan 2029 15:09:39.894      177.50633578    
08 Jan 2029 23:09:42.033    08 Jan 2029 23:13:16.018      213.98463822    
09 Jan 2029 15:46:39.308    09 Jan 2029 15:50:22.190      222.88144327    
09 Jan 2029 23:50:15.887    09 Jan 2029 23:53:23.452      187.56477517    
10 Jan 2029 14:51:26.936    10 Jan 2029 14:55:28.509      241.57239029    
10 Jan 2029 22:54:49.578    10 Jan 2029 22:58:54.525      244.94642242    
11 Jan 2029 13:57:39.629    11 Jan 2029 13:59:26.201      106.57217297    
11 Jan 2029 15:32:53.023    11 Jan 2029 15:35:01.008      127.98578991    
11 Jan 2029 22:00:12.922    11 Jan 2029 22:03:16.672      183.75061266    
12 Jan 2029 14:36:46.675    12 Jan 2029 14:40:45.668      238.99357928    
12 Jan 2029 22:40:17.866    12 Jan 2029 22:43:58.058      220.19112047    
13 Jan 2029 13:41:51.224    13 Jan 2029 13:45:36.634      225.40982425    
13 Jan 2029 21:45:06.343    13 Jan 2029 21:49:05.489      239.14622442    
14 Jan 2029 14:22:36.830    14 Jan 2029 14:25:36.491      179.66190426    
14 Jan 2029 20:50:46.336    14 Jan 2029 20:53:01.803      135.46777444    
14 Jan 2029 22:26:34.701    14 Jan 2029 22:27:59.247      84.546434332    
15 Jan 2029 13:26:53.666    15 Jan 2029 13:30:59.790      246.12444264    
15 Jan 2029 21:30:20.711    15 Jan 2029 21:34:19.043      238.33170617    
16 Jan 2029 12:32:17.669    16 Jan 2029 12:35:32.860      195.19049227    
16 Jan 2029 20:35:21.271    16 Jan 2029 20:39:05.417      224.14645320    
17 Jan 2029 13:12:25.392    17 Jan 2029 13:15:57.593      212.20095340    
17 Jan 2029 21:16:02.595    17 Jan 2029 21:18:51.215      168.62009129    
18 Jan 2029 12:17:00.376    18 Jan 2029 12:21:04.578      244.20214525    
18 Jan 2029 20:20:22.665    18 Jan 2029 20:24:28.205      245.54040839    
19 Jan 2029 11:22:51.442    19 Jan 2029 11:25:12.150      140.70855647    
19 Jan 2029 12:58:41.534    19 Jan 2029 13:00:15.264      93.730222655    
19 Jan 2029 19:25:35.157    19 Jan 2029 19:28:53.571      198.41420461    
20 Jan 2029 12:02:15.194    20 Jan 2029 12:06:07.986      232.79202087    
20 Jan 2029 20:05:45.422    20 Jan 2029 20:09:15.712      210.28969843    
21 Jan 2029 11:07:07.454    21 Jan 2029 11:10:59.543      232.08893269    
21 Jan 2029 19:10:23.097    21 Jan 2029 19:14:26.256      243.15869920    
22 Jan 2029 11:48:01.840    22 Jan 2029 11:50:43.739      161.89912437    
22 Jan 2029 18:15:50.245    22 Jan 2029 18:18:27.794      157.54905744    
23 Jan 2029 10:52:05.256    23 Jan 2029 10:56:08.825      243.56985418    
23 Jan 2029 18:55:31.094    23 Jan 2029 18:59:24.915      233.82191275    
24 Jan 2029 09:57:16.389    24 Jan 2029 10:00:43.360      206.97113837    
24 Jan 2029 18:00:21.976    24 Jan 2029 18:04:13.306      231.32987173    
25 Jan 2029 10:37:31.997    25 Jan 2029 10:40:53.206      201.20888839    
25 Jan 2029 17:06:15.844    25 Jan 2029 17:07:38.852      83.007664012    
25 Jan 2029 18:41:10.478    25 Jan 2029 18:43:38.661      148.18305733    
26 Jan 2029 09:41:55.449    26 Jan 2029 09:46:00.379      244.92970115    
26 Jan 2029 17:45:16.811    26 Jan 2029 17:49:21.678      244.86768837    
27 Jan 2029 08:47:30.877    27 Jan 2029 08:50:12.454      161.57669508    
27 Jan 2029 10:23:58.398    27 Jan 2029 10:24:42.281      43.882724410    
27 Jan 2029 16:50:19.841    27 Jan 2029 16:53:48.849      209.00839157    
28 Jan 2029 09:27:04.814    28 Jan 2029 09:30:50.957      226.14225307    
28 Jan 2029 17:30:34.012    28 Jan 2029 17:33:54.053      200.04078280    
29 Jan 2029 08:31:46.195    29 Jan 2029 08:35:42.289      236.09342747    
29 Jan 2029 16:35:01.514    29 Jan 2029 16:39:07.032      245.51799885    
30 Jan 2029 07:38:10.535    30 Jan 2029 07:39:07.236      56.700996263    
30 Jan 2029 09:12:48.039    30 Jan 2029 09:15:11.843      143.80385595    
30 Jan 2029 15:40:18.291    30 Jan 2029 15:43:11.221      172.92968275    
31 Jan 2029 08:16:38.522    31 Jan 2029 08:20:38.758      240.23520118    
31 Jan 2029 16:20:02.861    31 Jan 2029 16:23:51.752      228.89077374    
01 Feb 2029 07:21:38.621    01 Feb 2029 07:25:13.380      214.75893308    


Number of events : 71