data/GSContactData63.txt

Target: DefaultSC

Observer: GroundStation1
Start Time (UTC)            Stop Time (UTC)               Duration (s)         
01 Jan 2029 18:21:01.820    01 Jan 2029 18:25:27.224      265.40367322    
01 Jan 2029 19:55:01.609    01 Jan 2029 20:01:16.313      374.70396550    
01 Jan 2029 21:31:52.235    01 Jan 2029 21:36:02.136      249.90109939    
01 Jan 2029 23:08:52.489    01 Jan 2029 23:11:41.507      169.01792439    
02 Jan 2029 00:43:50.107    02 Jan 2029 00:49:04.896      314.78945946    
02 Jan 2029 02:18:48.491    02 Jan 2029 02:24:59.598      371.10708643    
02 Jan 2029 19:00:19.235    02 Jan 2029 19:06:36.165      376.92953021    
02 Jan 2029 20:36:21.554    02 Jan 2029 20:41:31.988      310.43392679    
02 Jan 2029 22:13:45.521    02 Jan 2029 22:16:31.718      166.19658207    
02 Jan 2029 23:49:19.904    02 Jan 2029 23:53:35.573      255.66980332    
03 Jan 2029 01:24:06.718    03 Jan 2029 01:30:20.604      373.88520580    
03 Jan 2029 03:00:05.371    03 Jan 2029 03:04:05.146      239.77483541    
03 Jan 2029 18:06:07.800    03 Jan 2029 18:11:40.729      332.92916317    
03 Jan 2029 19:41:03.718    03 Jan 2029 19:47:00.799      357.08083701    
03 Jan 2029 21:18:15.095    03 Jan 2029 21:21:46.457      211.36176721    
03 Jan 2029 22:54:44.462    03 Jan 2029 22:58:00.117      195.65472105    
04 Jan 2029 00:29:32.327    04 Jan 2029 00:35:16.902      344.57440873    
04 Jan 2029 02:04:44.855    04 Jan 2029 02:10:31.240      346.38464993    
04 Jan 2029 17:12:53.429    04 Jan 2029 17:16:04.306      190.87709627    
04 Jan 2029 18:46:04.940    04 Jan 2029 18:52:24.530      379.58950371    
04 Jan 2029 20:22:39.124    04 Jan 2029 20:27:12.653      273.52848582    
04 Jan 2029 21:59:52.716    04 Jan 2029 22:02:33.833      161.11664772    
04 Jan 2029 23:35:00.818    04 Jan 2029 23:39:54.412      293.59477741    
05 Jan 2029 01:09:53.252    05 Jan 2029 01:16:10.075      376.82317895    
05 Jan 2029 17:51:31.433    05 Jan 2029 17:57:38.213      366.78049711    
05 Jan 2029 19:27:10.847    05 Jan 2029 19:32:41.054      330.20679939    
05 Jan 2029 21:04:33.640    05 Jan 2029 21:07:32.740      179.10015257    
05 Jan 2029 22:40:27.922    05 Jan 2029 22:44:19.826      231.90399259    
06 Jan 2029 00:15:13.355    06 Jan 2029 00:21:19.332      365.97703103    
06 Jan 2029 01:50:49.019    06 Jan 2029 01:55:43.435      294.41614598    
06 Jan 2029 16:57:34.489    06 Jan 2029 17:02:31.185      296.69534146    
06 Jan 2029 18:31:57.975    06 Jan 2029 18:38:06.817      368.84179056    
06 Jan 2029 20:08:57.401    06 Jan 2029 20:12:51.785      234.38452851    
06 Jan 2029 21:45:46.414    06 Jan 2029 21:48:43.951      177.53647165    
06 Jan 2029 23:20:38.940    06 Jan 2029 23:26:06.188      327.24749325    
07 Jan 2029 00:55:41.822    07 Jan 2029 01:01:46.022      364.19939061    
07 Jan 2029 17:37:06.385    07 Jan 2029 17:43:25.854      379.46896272    
07 Jan 2029 19:13:21.566    07 Jan 2029 19:18:17.982      296.41614079    
07 Jan 2029 20:50:43.147    07 Jan 2029 20:53:24.531      161.38437409    
07 Jan 2029 22:26:05.899    07 Jan 2029 22:30:36.526      270.62621360    
08 Jan 2029 00:00:54.135    08 Jan 2029 00:07:10.866      376.73031270    
08 Jan 2029 01:37:14.256    08 Jan 2029 01:40:22.835      188.57852319    
08 Jan 2029 16:42:43.287    08 Jan 2029 16:48:31.932      348.64504554    
08 Jan 2029 18:17:56.793    08 Jan 2029 18:23:44.254      347.46078760    
08 Jan 2029 19:55:13.627    08 Jan 2029 19:58:31.190      197.56353248    
08 Jan 2029 21:31:29.302    08 Jan 2029 21:34:58.144      208.84216900    
08 Jan 2029 23:06:15.282    08 Jan 2029 23:12:09.261      353.97954688    
09 Jan 2029 00:41:35.095    09 Jan 2029 00:47:05.660      330.56477748    
09 Jan 2029 15:49:06.468    09 Jan 2029 15:53:07.752      241.28356132    
09 Jan 2029 17:22:49.755    09 Jan 2029 17:29:06.372      376.61737326    
09 Jan 2029 18:59:34.207    09 Jan 2029 19:03:52.574      258.36693841    
09 Jan 2029 20:36:39.638    09 Jan 2029 20:39:24.566      164.92710847    
09 Jan 2029 22:11:40.272    09 Jan 2029 22:16:47.429      307.15681126    
09 Jan 2029 23:46:35.871    09 Jan 2029 23:52:50.056      374.18495051    
10 Jan 2029 16:28:06.409    10 Jan 2029 16:34:19.824      373.41496814    
10 Jan 2029 18:04:00.017    10 Jan 2029 18:09:17.795      317.77800975    
10 Jan 2029 19:41:23.827    10 Jan 2029 19:44:13.760      169.93352839    
10 Jan 2029 21:17:05.013    10 Jan 2029 21:21:11.638      246.62546713    
10 Jan 2029 22:51:50.742    10 Jan 2029 22:58:02.281      371.53924563    
11 Jan 2029 00:27:39.098    11 Jan 2029 00:32:02.893      263.79493685    
11 Jan 2029 15:33:55.997    11 Jan 2029 15:39:16.119      320.12214088    
11 Jan 2029 17:08:39.732    11 Jan 2029 17:14:41.333      361.60114417    
11 Jan 2029 18:45:46.580    11 Jan 2029 18:49:26.189      219.60896021    
11 Jan 2029 20:22:23.345    11 Jan 2029 20:25:31.376      188.03075094    
11 Jan 2029 21:57:12.251    11 Jan 2029 22:02:50.609      338.35766483    
11 Jan 2029 23:32:20.404    11 Jan 2029 23:38:14.921      354.51661617    
12 Jan 2029 14:40:55.087    12 Jan 2029 14:43:19.093      144.00599665    
12 Jan 2029 16:13:39.429    12 Jan 2029 16:19:59.150      379.72017465    
12 Jan 2029 17:50:06.181    12 Jan 2029 17:54:48.349      282.16820365    
12 Jan 2029 19:27:23.215    12 Jan 2029 19:30:03.107      159.89219280    
12 Jan 2029 21:02:36.078    12 Jan 2029 21:07:20.922      284.84475540    
12 Jan 2029 22:37:26.333    12 Jan 2029 22:43:43.942      377.60970437    
13 Jan 2029 00:14:22.369    13 Jan 2029 00:16:09.136      106.76692177    
13 Jan 2029 15:19:05.665    13 Jan 2029 15:25:05.832      360.16718305    
13 Jan 2029 16:54:34.901    13 Jan 2029 17:00:11.829      336.92874229    
13 Jan 2029 18:31:55.556    13 Jan 2029 18:35:00.990      185.43379636    
13 Jan 2029 20:07:57.742    13 Jan 2029 20:11:40.317      222.57449714    
13 Jan 2029 21:42:42.776    13 Jan 2029 21:48:44.600      361.82319524    
13 Jan 2029 23:18:11.189    13 Jan 2029 23:23:21.936      310.74705468    
14 Jan 2029 14:25:11.795    14 Jan 2029 14:29:48.600      276.80497208    
14 Jan 2029 15:59:20.032    14 Jan 2029 16:05:32.054      372.02184240    
14 Jan 2029 17:36:13.496    14 Jan 2029 17:40:17.010      243.51355545    
14 Jan 2029 19:13:09.164    14 Jan 2029 19:16:00.656      171.49258533    
14 Jan 2029 20:48:04.056    14 Jan 2029 20:53:23.639      319.58292100    
14 Jan 2029 22:23:03.433    14 Jan 2029 22:29:12.695      369.26207721    
15 Jan 2029 15:04:27.471    15 Jan 2029 15:10:44.789      377.31799056    
15 Jan 2029 16:40:33.907    15 Jan 2029 16:45:38.778      304.87102446    
15 Jan 2029 18:17:56.753    15 Jan 2029 18:20:40.280      163.52714938    
15 Jan 2029 19:53:26.100    15 Jan 2029 19:57:47.079      260.97884275    
15 Jan 2029 21:28:12.768    15 Jan 2029 21:34:28.128      375.35979641    
15 Jan 2029 23:04:17.367    15 Jan 2029 23:08:01.936      224.56824041    
16 Jan 2029 14:10:05.145    16 Jan 2029 14:15:42.996      337.85090618    
16 Jan 2029 15:45:06.639    16 Jan 2029 15:50:59.876      353.23716035    
16 Jan 2029 17:22:19.519    16 Jan 2029 17:25:45.377      205.85713629    
16 Jan 2029 18:58:43.543    16 Jan 2029 19:02:03.360      199.81756120    
16 Jan 2029 20:33:30.020    16 Jan 2029 20:39:18.108      348.08772609    
16 Jan 2029 22:08:44.297    16 Jan 2029 22:14:26.208      341.91121344    
17 Jan 2029 13:16:36.061    17 Jan 2029 13:20:04.123      208.06227734    
17 Jan 2029 14:49:58.114    17 Jan 2029 14:56:16.177      378.06319121    
17 Jan 2029 16:26:35.228    17 Jan 2029 16:31:03.131      267.90323595    
17 Jan 2029 18:03:45.772    17 Jan 2029 18:06:27.310      161.53824257    
17 Jan 2029 19:38:50.512    17 Jan 2029 19:43:48.688      298.17664095    
17 Jan 2029 21:13:43.337    17 Jan 2029 21:19:59.869      376.53143182    
18 Jan 2029 13:55:14.505    18 Jan 2029 14:01:22.832      368.32662758    
18 Jan 2029 15:30:57.917    18 Jan 2029 15:36:23.620      325.70295670    
18 Jan 2029 17:08:20.710    18 Jan 2029 17:11:16.016      175.30648035    
18 Jan 2029 18:44:10.029    18 Jan 2029 18:48:06.456      236.42674140    
18 Jan 2029 20:18:54.879    18 Jan 2029 20:25:02.993      368.11333507    
18 Jan 2029 21:54:33.555    18 Jan 2029 21:59:19.825      286.26974139    
19 Jan 2029 13:01:06.505    19 Jan 2029 13:06:09.827      303.32159236    
19 Jan 2029 14:35:35.669    19 Jan 2029 14:41:41.752      366.08243461    
19 Jan 2029 16:12:36.913    19 Jan 2029 16:16:26.119      229.20641934    
19 Jan 2029 17:49:21.675    19 Jan 2029 17:52:21.852      180.17776849    
19 Jan 2029 19:24:12.304    19 Jan 2029 19:29:43.125      330.82104684    
19 Jan 2029 20:59:16.092    19 Jan 2029 21:05:18.106      362.01333421    
20 Jan 2029 12:08:44.726    20 Jan 2029 12:09:26.938      42.211790127    
20 Jan 2029 13:40:34.472    20 Jan 2029 13:46:53.428      378.95617444    
20 Jan 2029 15:16:52.502    20 Jan 2029 15:21:44.189      291.68766834    
20 Jan 2029 16:54:12.437    20 Jan 2029 16:56:52.482      160.04477413    
20 Jan 2029 18:29:31.428    20 Jan 2029 18:34:06.184      274.75599217    
20 Jan 2029 20:04:19.596    20 Jan 2029 20:10:37.057      377.46062300    
20 Jan 2029 21:40:46.744    20 Jan 2029 21:43:38.011      171.26668162    
21 Jan 2029 12:46:01.397    21 Jan 2029 12:51:52.611      351.21423769    
21 Jan 2029 14:21:18.715    21 Jan 2029 14:27:02.689      343.97492433    
21 Jan 2029 15:58:36.212    21 Jan 2029 16:01:49.630      193.41757579    
21 Jan 2029 17:34:47.448    21 Jan 2029 17:38:19.804      212.35639098    
21 Jan 2029 19:09:32.457    21 Jan 2029 19:15:28.894      356.43709993    
21 Jan 2029 20:44:53.840    21 Jan 2029 20:50:19.995      326.15446458    
22 Jan 2029 11:52:13.040    22 Jan 2029 11:56:23.229      250.18846801    
22 Jan 2029 13:26:02.451    22 Jan 2029 13:32:17.265      374.81397924    
22 Jan 2029 15:02:48.777    22 Jan 2029 15:07:02.600      253.82292671    
22 Jan 2029 16:39:51.200    22 Jan 2029 16:42:37.143      165.94262864    
22 Jan 2029 18:14:49.480    22 Jan 2029 18:20:00.016      310.53517191    
22 Jan 2029 19:49:45.406    22 Jan 2029 19:55:58.907      373.50032777    
23 Jan 2029 12:31:09.704    23 Jan 2029 12:37:23.445      373.74020715    
23 Jan 2029 14:07:05.952    23 Jan 2029 14:12:19.928      313.97575844    
23 Jan 2029 15:44:29.165    23 Jan 2029 15:47:16.629      167.46407576    
23 Jan 2029 17:20:06.568    23 Jan 2029 17:24:16.663      250.09475530    
23 Jan 2029 18:54:51.867    23 Jan 2029 19:01:04.739      372.87202355    
23 Jan 2029 20:30:43.059    23 Jan 2029 20:34:59.053      255.99358419    
24 Jan 2029 11:36:49.455    24 Jan 2029 11:42:13.037      323.58201197    
24 Jan 2029 13:11:36.783    24 Jan 2029 13:17:35.820      359.03658952    
24 Jan 2029 14:48:44.585    24 Jan 2029 14:52:20.253      215.66786090    
24 Jan 2029 16:25:17.747    24 Jan 2029 16:28:28.112      190.36532765    
24 Jan 2029 18:00:05.333    24 Jan 2029 18:05:46.182      340.84808459    
24 Jan 2029 19:35:14.205    24 Jan 2029 19:41:06.572      352.36757331    
25 Jan 2029 10:43:34.714    25 Jan 2029 10:46:13.450      158.73635423    
25 Jan 2029 12:16:27.479    25 Jan 2029 12:22:46.184      378.70463342    
25 Jan 2029 13:52:55.971    25 Jan 2029 13:57:34.374      278.40266697    
25 Jan 2029 15:30:11.175    25 Jan 2029 15:32:50.619      159.44348018    
25 Jan 2029 17:05:21.383    25 Jan 2029 17:10:09.193      287.80988466    
25 Jan 2029 18:40:11.551    25 Jan 2029 18:46:29.416      377.86439143    
25 Jan 2029 20:17:19.463    25 Jan 2029 20:18:39.563      80.099669576    
26 Jan 2029 11:21:44.568    26 Jan 2029 11:27:45.686      361.11789329    
26 Jan 2029 12:57:16.132    26 Jan 2029 13:02:50.137      334.00553972    
26 Jan 2029 14:34:36.807    26 Jan 2029 14:37:39.353      182.54650282    
26 Jan 2029 16:10:35.583    26 Jan 2029 16:14:20.797      225.21403473    
26 Jan 2029 17:45:19.896    26 Jan 2029 17:51:23.312      363.41598452    
26 Jan 2029 19:20:49.559    26 Jan 2029 19:25:56.453      306.89418790    
27 Jan 2029 10:27:40.954    27 Jan 2029 10:32:22.020      281.06550991    
27 Jan 2029 12:01:52.584    27 Jan 2029 12:08:02.819      370.23523408    
27 Jan 2029 13:38:47.017    27 Jan 2029 13:42:47.121      240.10459090    
27 Jan 2029 15:15:40.061    27 Jan 2029 15:18:32.638      172.57788170    
27 Jan 2029 16:50:33.344    27 Jan 2029 16:55:55.206      321.86159313    
27 Jan 2029 18:25:32.891    27 Jan 2029 18:31:41.401      368.51011362    
28 Jan 2029 11:06:51.293    28 Jan 2029 11:13:08.174      376.88112912    
28 Jan 2029 12:42:59.189    28 Jan 2029 12:48:01.102      301.91289325    
28 Jan 2029 14:20:21.109    28 Jan 2029 14:23:03.191      162.08228383    
28 Jan 2029 15:55:47.783    28 Jan 2029 16:00:11.133      263.34988639    
28 Jan 2029 17:30:34.062    28 Jan 2029 17:36:50.185      376.12372306    
28 Jan 2029 19:06:41.118    28 Jan 2029 19:10:18.877      217.75978842    
29 Jan 2029 10:12:20.104    29 Jan 2029 10:17:59.267      339.16364926    
29 Jan 2029 11:47:23.520    29 Jan 2029 11:53:14.607      351.08703497    
29 Jan 2029 13:24:36.658    29 Jan 2029 13:27:59.765      203.10678282    
29 Jan 2029 15:00:57.928    29 Jan 2029 15:04:19.439      201.51117314    
29 Jan 2029 16:35:43.454    29 Jan 2029 16:41:33.109      349.65509243    
29 Jan 2029 18:10:58.142    29 Jan 2029 18:16:38.356      340.21352223    
30 Jan 2029 09:18:41.147    30 Jan 2029 09:22:14.434      213.28738919    
30 Jan 2029 10:52:06.561    30 Jan 2029 10:58:23.429      376.86840979    
30 Jan 2029 12:28:44.453    30 Jan 2029 12:33:09.630      265.17703336    
30 Jan 2029 14:05:53.314    30 Jan 2029 14:08:34.804      161.49080488    
30 Jan 2029 15:40:56.280    30 Jan 2029 15:45:56.318      300.03768874    
30 Jan 2029 17:15:48.906    30 Jan 2029 17:22:05.496      376.59040008    
31 Jan 2029 09:57:14.515    31 Jan 2029 10:03:22.723      368.20857539    
31 Jan 2029 11:32:58.981    31 Jan 2029 11:38:22.482      323.50062286    
31 Jan 2029 13:10:21.365    31 Jan 2029 13:13:14.846      173.48144562    
31 Jan 2029 14:46:08.321    31 Jan 2029 14:50:06.386      238.06518239    
31 Jan 2029 16:20:52.563    31 Jan 2029 16:27:01.605      369.04204910    
31 Jan 2029 17:56:31.968    31 Jan 2029 18:01:15.546      283.57825151    
01 Feb 2029 09:02:57.959    01 Feb 2029 09:08:02.600      304.64115998    
01 Feb 2029 10:37:28.525    01 Feb 2029 10:43:33.077      364.55179924    


Number of events : 191